,# BATH,# BED,# BLDG,# COMM,# FIREPLACE,# FLOORS,# POWDER,# ROOMS,# UNITS,# UNITS.1,ADDRESS,AIRPORT NOISE,ATTIC,ATTIC COND,BASEMENT,BASEMENT COND,BATH,BED,BLDG ASSD $ PY,BLDG CAT,BLDG CODE,BLDG CODE DEF,BLDG CODE.1,CATHEDRAL CEILING,CENTRAL AIR,CENTRAL AIR ,CENTRAL HEATING,CITY,CONST QUALITY,Deed No.,ENCLOSED PORCH,EXT MATERIAL,FEMA,GARAGE 1,GARAGE 1 AREA,GARAGE 1 MATERIAL,GARAGE AREA,GARAGE ATTACHED,GSF,INT COND,LAND ASSD $ PY,LAND ASSD $ py,LAND SF,LATITUDE,LONGITUDE,Modeling Group,NEIGHBORHOOD,Near Major Road,OTHER HEATING,PIN,ROOF MATERIAL,STATE,Sale Date,TAX YEAR,TOWN,Total Building Square Feet,Town and Neighborhood,YEAR BUILT,ZIP,SALE PRICE,SALE DATE,PROPERTY TYPE
0,1.0,2.0,2.0,0.0,1.0,1,0.0,4.0,0.0,,6956 WEST FARRAGUT AVENUE,1.0,3.0,0.0,1.0,3.0,,,"199,690",1,202,SMALL 1 STORY,1.0,2.0,,0.0,1.0,,2.0,1900906014.0,0.0,2.0,0.0,1,nan,1.0,0.0,0,,2.0,,"31,250",2500,41.97658605,-87.80192735,SF,430.0,0.0,5.0,13071300000000,1.0,,1/1/2020,2019.0,71.0,,71430.0,63.0,,305000.0,2020-02-06 00:00:00,Single Family Residence
1,2.0,3.0,2.0,0.0,1.0,1.5,1.0,7.0,0.0,,6302 WEST WAVELAND AVENUE,0.0,2.0,1.0,1.0,1.0,,,"282,320",5,203,MEDIUM 1 STORY,1.0,2.0,,1.0,1.0,,2.0,1901006100.0,0.0,2.0,0.0,1.5,nan,1.0,0.0,0,,2.0,,"58,810",4705,41.94777123,-87.78417763,SF,150.0,0.0,5.0,13201200000000,1.0,,1/1/2020,2019.0,71.0,,71150.0,98.0,,449000.0,2020-02-19 00:00:00,Single Family Residence
2,1.0,3.0,2.0,0.0,1.0,1,0.0,5.0,0.0,,3656 NORTH ARTESIAN AVENUE,0.0,3.0,0.0,2.0,3.0,,,"564,490",1,203,MEDIUM 1 STORY,1.0,0.0,,0.0,1.0,,2.0,1901808148.0,0.0,1.0,0.0,1,nan,1.0,0.0,0,,2.0,,"99,060",4503,41.94841132,-87.68988459999998,SF,82.0,0.0,5.0,13242100000000,1.0,,1/1/2020,2019.0,71.0,,7182.0,90.0,,1252000.0,2020-02-06 00:00:00,Single Family Residence
3,1.0,3.0,2.0,0.0,1.0,1,0.0,6.0,0.0,,5553 NORTH LEAVENWORTH AVENUE,0.0,2.0,3.0,1.0,3.0,,,"205,660",1,203,MEDIUM 1 STORY,1.0,2.0,,1.0,1.0,,2.0,1904217023.0,1.0,1.0,0.0,1,nan,1.0,0.0,0,,2.0,,"50,620",3750,41.9823249,-87.76077542,SF,10.0,0.0,5.0,13091200000000,1.0,,1/1/2020,2019.0,71.0,,7110.0,112.0,,230000.0,2020-02-14 00:00:00,Single Family Residence
4,1.0,3.0,2.0,0.0,1.0,2,1.0,6.0,0.0,,3947 NORTH NEWLAND AVENUE,0.0,3.0,0.0,1.0,3.0,,,"249,290",2,205,2 OR MORE STORIES,1.0,2.0,,1.0,2.0,,2.0,1905117053.0,0.0,2.0,0.0,1.5,nan,1.0,0.0,0,,2.0,,"38,750",3100,41.95223453,-87.79954919,SF,150.0,0.0,5.0,13191100000000,1.0,,1/1/2020,2019.0,71.0,,71150.0,86.0,,412500.0,2020-02-13 00:00:00,Single Family Residence
5,6.0,7.0,2.0,0.0,2.0,2,1.0,16.0,0.0,,7400 NORTH SHERIDAN ROAD,0.0,1.0,1.0,1.0,1.0,,,"936,070",2,209,2 OR MORE STORIES,1.0,2.0,,1.0,1.0,,2.0,1906417062.0,2.0,2.0,0.0,2,nan,2.0,0.0,0,,2.0,,"213,300",14711,42.01737961,-87.66594621,SF,31.0,1.0,5.0,11293100000000,5.0,,1/1/2020,2019.0,75.0,,7531.0,102.0,,1250000.0,2020-01-29 00:00:00,Governmental / Public Use (general)
6,1.0,3.0,2.0,0.0,1.0,1.5,1.0,5.0,0.0,,5049 NORTH MELVINA AVENUE,0.0,1.0,1.0,1.0,1.0,,,"244,380",5,202,SMALL 1 STORY,1.0,2.0,,1.0,1.0,,2.0,1907357040.0,1.0,1.0,0.0,1.5,nan,1.0,0.0,0,,2.0,,"51,150",4092,41.97347023,-87.78272290000001,SF,430.0,0.0,5.0,13083100000000,1.0,,1/1/2020,2019.0,71.0,,71430.0,69.0,,329000.0,2020-02-04 00:00:00,Single Family Residence
7,6.0,12.0,2.0,0.0,1.0,3,0.0,24.0,6.0,,5542 WEST BRYN MAWR AVENUE,0.0,3.0,0.0,2.0,3.0,,,"539,770",3,211,MULTI: 2 TO 6 UNITS,2.0,2.0,,0.0,1.0,,2.0,1908555045.0,0.0,2.0,0.0,0,nan,0.0,0.0,0,,2.0,,"67,360",4990,41.98319766,-87.76762069,MF,10.0,0.0,5.0,13043100000000,1.0,,1/1/2020,2019.0,71.0,,7110.0,46.0,,199000.0,2020-02-05 00:00:00,Apartment house (5+ units)
8,2.0,3.0,2.0,0.0,1.0,2,0.0,5.0,0.0,,2901 NORTH NEVA AVENUE,0.0,3.0,0.0,2.0,3.0,,,"315,990",2,205,2 OR MORE STORIES,1.0,0.0,,0.0,1.0,,2.0,1908749153.0,0.0,1.0,0.0,1,nan,1.0,0.0,0,,2.0,,"50,510",4041,41.93271806,-87.80498921,SF,200.0,0.0,5.0,13301200000000,1.0,,1/1/2020,2019.0,71.0,,71200.0,65.0,,395000.0,2020-02-18 00:00:00,Single Family Residence
9,1.0,2.0,2.0,0.0,1.0,1,0.0,4.0,0.0,,4701 NORTH KELSO AVENUE,0.0,2.0,3.0,1.0,3.0,,,"211,270",1,202,SMALL 1 STORY,1.0,2.0,,0.0,1.0,,2.0,1909908299.0,0.0,2.0,0.0,1.5,nan,1.0,0.0,0,,2.0,,"42,180",3125,41.96611617,-87.73317573,SF,71.0,0.0,5.0,13152100000000,1.0,,1/1/2020,2019.0,71.0,,7171.0,95.0,,398500.0,2020-02-24 00:00:00,Single Family Residence
10,2.0,2.0,2.0,0.0,1.0,1.5,0.0,6.0,0.0,,3141 NORTH OSCEOLA AVENUE,0.0,1.0,1.0,1.0,3.0,,,"220,150",5,203,MEDIUM 1 STORY,1.0,0.0,,0.0,2.0,,2.0,1910206106.0,1.0,1.0,0.0,1.5,nan,1.0,0.0,0,,2.0,,"77,300",6184,41.9374465,-87.81247101,SF,371.0,0.0,5.0,12252000000000,1.0,,1/1/2020,2019.0,71.0,,71371.0,95.0,,369000.0,2020-02-04 00:00:00,Single Family Residence
11,6.0,12.0,2.0,0.0,1.0,3,0.0,30.0,6.0,,1940 NORTH HUMBOLDT BOULEVARD,0.0,3.0,0.0,1.0,3.0,,,"713,550",3,211,MULTI: 2 TO 6 UNITS,2.0,0.0,,0.0,2.0,,2.0,1911301152.0,0.0,2.0,0.0,0,nan,2.0,0.0,0,,1.0,,"223,120",8750,41.91686603,-87.7028542,MF,30.0,0.0,5.0,13363000000000,2.0,,1/1/2020,2019.0,77.0,,7730.0,99.0,,1465000.0,2019-04-23 00:00:00,Apartment house (5+ units)
12,3.0,6.0,2.0,0.0,1.0,3,1.0,15.0,3.0,,2845 WEST PALMER STREET,0.0,3.0,0.0,1.0,3.0,,,"518,080",3,211,MULTI: 2 TO 6 UNITS,2.0,2.0,,0.0,1.0,,2.0,1911417139.0,0.0,2.0,0.0,2,nan,1.0,0.0,0,,2.0,,"133,870",5250,41.9213774,-87.69906468,MF,30.0,0.0,2.0,13361100000000,1.0,,1/1/2020,2019.0,77.0,,7730.0,120.0,,875000.0,2020-02-14 00:00:00,Apartment house (5+ units)
13,1.0,3.0,2.0,0.0,1.0,2,0.0,6.0,0.0,,7006 WEST NEWPORT AVENUE,0.0,3.0,0.0,1.0,3.0,,,"257,900",2,205,2 OR MORE STORIES,1.0,0.0,,0.0,1.0,,2.0,1911533004.0,0.0,2.0,0.0,1.5,nan,2.0,0.0,0,,2.0,,"54,370",3750,41.94288982,-87.8018112,SF,140.0,0.0,5.0,13193100000000,1.0,,1/1/2020,2019.0,71.0,,71140.0,79.0,,349000.0,2020-02-05 00:00:00,Single Family Residence
14,6.0,12.0,2.0,0.0,1.0,3,0.0,24.0,6.0,,3945 NORTH GREENVIEW AVENUE,0.0,3.0,0.0,1.0,3.0,,,"1,020,600",3,211,MULTI: 2 TO 6 UNITS,2.0,2.0,,0.0,2.0,,2.0,1912357010.0,0.0,2.0,0.0,0,nan,0.0,0.0,0,,2.0,,"147,840",2310,41.95389395,-87.66729115,MF,84.0,0.0,5.0,14201000000000,2.0,,1/1/2020,2019.0,73.0,,7384.0,120.0,,1050000.0,2019-05-03 00:00:00,Apartment house (5+ units)
15,1.0,3.0,2.0,0.0,1.0,1,0.0,5.0,0.0,,3217 NORTH OZANAM AVENUE,0.0,3.0,0.0,1.0,1.0,,,"191,720",1,203,MEDIUM 1 STORY,1.0,0.0,,1.0,1.0,,2.0,1912301141.0,0.0,3.0,0.0,1.5,nan,1.0,0.0,0,,2.0,,"46,870",3750,41.93845972,-87.82107816,SF,371.0,0.0,5.0,12243300000000,1.0,,1/1/2020,2019.0,71.0,,71371.0,57.0,,350000.0,2020-02-19 00:00:00,Single Family Residence
16,1.0,3.0,2.0,0.0,1.0,1,0.0,5.0,0.0,,3347 NORTH NATCHEZ AVENUE,0.0,3.0,0.0,1.0,3.0,,,"179,580",1,203,MEDIUM 1 STORY,1.0,2.0,,1.0,1.0,,2.0,1912749083.0,0.0,2.0,0.0,1.5,nan,1.0,0.0,0,,2.0,,"52,700",4216,41.94143811,-87.78825701,SF,150.0,0.0,5.0,13194200000000,1.0,,1/1/2020,2019.0,71.0,,71150.0,57.0,,305000.0,2003-05-14 00:00:00,Single Family Residence
17,2.0,6.0,2.0,0.0,2.0,2,1.0,12.0,2.0,,2963 NORTH LAWNDALE AVENUE,0.0,1.0,1.0,1.0,3.0,,,"276,990",2,211,MULTI: 2 TO 6 UNITS,2.0,2.0,,1.0,1.0,,2.0,1912934120.0,0.0,1.0,0.0,0,nan,0.0,0.0,0,,2.0,,"48,000",3000,41.93549769,-87.72043921,MF,70.0,0.0,2.0,13261200000000,1.0,,1/1/2020,2019.0,71.0,,7170.0,110.0,,498000.0,2020-02-21 00:00:00,Apartment house (5+ units)
18,1.0,3.0,2.0,0.0,1.0,1.5,0.0,6.0,0.0,,6937 NORTH OLCOTT AVENUE,0.0,1.0,1.0,1.0,3.0,,,"289,960",5,203,MEDIUM 1 STORY,1.0,0.0,,0.0,1.0,,2.0,1913513121.0,0.0,1.0,0.0,1,nan,1.0,0.0,0,,2.0,,"99,220",7350,42.0071972,-87.81328206,SF,362.0,0.0,5.0,9362180000000,1.0,,1/1/2020,2019.0,71.0,,71362.0,103.0,,362500.0,2020-02-06 00:00:00,Single Family Residence
19,1.0,3.0,2.0,0.0,1.0,1,0.0,5.0,0.0,,5341 NORTH RAVENSWOOD AVENUE,0.0,3.0,0.0,1.0,1.0,,,"284,940",1,202,SMALL 1 STORY,1.0,0.0,,0.0,1.0,,2.0,1914218029.0,0.0,2.0,0.0,1,nan,1.0,0.0,0,,2.0,,"146,050",3175,41.97919397,-87.67405527,SF,31.0,0.0,5.0,14072100000000,1.0,,1/1/2020,2019.0,73.0,,7331.0,55.0,,378000.0,2020-02-21 00:00:00,Single Family Residence
20,2.0,4.0,2.0,0.0,1.0,2,0.0,8.0,2.0,,2547 WEST HOMER STREET,0.0,1.0,3.0,1.0,1.0,,,"373,390",2,211,MULTI: 2 TO 6 UNITS,2.0,0.0,,0.0,2.0,,2.0,1914347073.0,0.0,1.0,0.0,1.5,nan,1.0,0.0,0,,2.0,,"75,880",2976,41.91636891,-87.69166265,MF,30.0,0.0,5.0,13364100000000,2.0,,1/1/2020,2019.0,77.0,,7730.0,135.0,,400000.0,2020-02-13 00:00:00,Apartment house (5+ units)
21,2.0,3.0,2.0,0.0,2.0,2,1.0,5.0,0.0,,1811 NORTH ROCKWELL STREET,0.0,3.0,0.0,3.0,1.0,,,"408,150",2,295,TOWNHOUSE,1.0,2.0,,1.0,1.0,,2.0,1915134011.0,0.0,2.0,0.0,1.5,nan,2.0,1.0,1,,2.0,,"36,640",1437,41.91426161,-87.69093753,SF,30.0,0.0,5.0,13364200000000,2.0,,1/1/2020,2019.0,77.0,,7730.0,19.0,,525000.0,2020-02-24 00:00:00,Townhouse
22,3.0,6.0,2.0,0.0,1.0,3,1.0,12.0,2.0,,2107 WEST MONTROSE AVENUE,0.0,3.0,0.0,1.0,1.0,,,"591,220",3,211,MULTI: 2 TO 6 UNITS,2.0,2.0,,1.0,1.0,,2.0,1916149150.0,0.0,2.0,0.0,1.5,nan,2.0,0.0,0,,2.0,,"150,000",3125,41.96115397,-87.68174523,MF,42.0,0.0,5.0,14183100000000,2.0,,1/1/2020,2019.0,73.0,,7342.0,116.0,,1150000000.0,2020-01-29 00:00:00,Apartment house (5+ units)
23,2.0,3.0,2.0,0.0,1.0,1.5,0.0,7.0,2.0,,4022 NORTH CAMPBELL AVENUE,0.0,1.0,2.0,1.0,3.0,,,"349,520",5,211,MULTI: 2 TO 6 UNITS,2.0,2.0,,0.0,2.0,,2.0,1919608032.0,1.0,1.0,0.0,1.5,nan,1.0,0.0,0,,2.0,,"69,600",2900,41.95477342,-87.69126877,MF,110.0,0.0,5.0,13134200000000,1.0,,1/1/2020,2019.0,71.0,,71110.0,105.0,,360000.0,2019-07-15 00:00:00,Apartment house (5+ units)
24,1.0,3.0,2.0,0.0,1.0,1.5,6.0,5.0,0.0,,5304 NORTH MOODY AVENUE,0.0,1.0,1.0,1.0,1.0,,,"265,640",5,203,MEDIUM 1 STORY,1.0,0.0,,0.0,1.0,,2.0,1920446145.0,0.0,2.0,0.0,0,nan,0.0,0.0,0,,2.0,,"77,750",6220,41.97774778,-87.78269347,SF,430.0,0.0,5.0,13081200000000,1.0,,1/1/2020,2019.0,71.0,,71430.0,71.0,,162000.0,2019-07-23 00:00:00,Single Family Residence
25,2.0,4.0,2.0,0.0,1.0,2,0.0,8.0,2.0,,4311 NORTH MASON AVENUE,0.0,3.0,0.0,1.0,3.0,,,"244,060",2,211,MULTI: 2 TO 6 UNITS,2.0,0.0,,0.0,1.0,,2.0,1921249018.0,1.0,2.0,0.0,1.5,nan,1.0,0.0,0,,2.0,,"54,370",3750,41.95894703,-87.77540065,MF,90.0,0.0,5.0,13174000000000,2.0,,1/1/2020,2019.0,71.0,,7190.0,94.0,,400000.0,2020-01-30 00:00:00,Apartment house (5+ units)
26,1.0,3.0,2.0,0.0,1.0,2,1.0,6.0,0.0,,5930 NORTH DRAKE AVENUE,0.0,2.0,3.0,1.0,1.0,,,"253,030",2,205,2 OR MORE STORIES,1.0,0.0,,1.0,1.0,,2.0,1922134067.0,0.0,2.0,0.0,1,nan,3.0,0.0,1,,2.0,,"81,560",5625,41.98931688,-87.71796367,SF,50.0,0.0,2.0,13024000000000,2.0,,1/1/2020,2019.0,71.0,,7150.0,69.0,,356000.0,2020-02-04 00:00:00,Single Family Residence
27,1.0,3.0,2.0,0.0,2.0,1.5,0.0,5.0,0.0,,1657 NORTH MENARD AVENUE,0.0,1.0,1.0,1.0,3.0,,,"136,220",5,203,MEDIUM 1 STORY,1.0,2.0,,0.0,1.0,,2.0,1922449226.0,0.0,2.0,0.0,1.5,nan,1.0,0.0,0,,2.0,,"49,730",4521,41.9110024,-87.76999954,SF,210.0,0.0,5.0,13324100000000,1.0,,1/1/2020,2019.0,71.0,,71210.0,98.0,,245000.0,2020-02-11 00:00:00,Single Family Residence
28,1.0,3.0,2.0,0.0,1.0,1,0.0,5.0,0.0,,5731 WEST AINSLIE STREET,0.0,3.0,0.0,2.0,3.0,,,"266,420",1,203,MEDIUM 1 STORY,1.0,0.0,,0.0,1.0,,2.0,1922749485.0,0.0,1.0,0.0,0,nan,0.0,0.0,0,,2.0,,"60,400",4166,41.96928144,-87.77150774,SF,402.0,0.0,5.0,13084300000000,1.0,,1/1/2020,2019.0,71.0,,71402.0,94.0,,490000.0,2020-02-13 00:00:00,Single Family Residence
29,2.0,3.0,2.0,0.0,2.0,2,0.0,6.0,0.0,,3323 NORTH OAKLEY AVENUE,0.0,2.0,3.0,1.0,3.0,,,"636,130",2,205,2 OR MORE STORIES,1.0,2.0,,1.0,2.0,,2.0,1922845039.0,1.0,1.0,0.0,1.5,nan,1.0,0.0,0,,2.0,,"161,200",3100,41.94205318,-87.68534878,SF,70.0,0.0,5.0,14193200000000,1.0,,1/1/2020,2019.0,73.0,,7370.0,94.0,,560000.0,2020-02-06 00:00:00,Single Family Residence
30,1.0,2.0,2.0,0.0,1.0,2,0.0,5.0,0.0,,3104 NORTH OCTAVIA AVENUE,0.0,3.0,0.0,2.0,3.0,,,"200,610",2,205,2 OR MORE STORIES,1.0,0.0,,0.0,1.0,,2.0,1923422064.0,0.0,2.0,0.0,1,nan,1.0,0.0,0,,2.0,,"66,500",5320,41.93654137,-87.80950412,SF,371.0,0.0,5.0,12252100000000,1.0,,1/1/2020,2019.0,71.0,,71371.0,73.0,,265000.0,2020-02-03 00:00:00,Single Family Residence
31,2.0,4.0,2.0,0.0,2.0,2,2.0,8.0,0.0,,3124 WEST COLUMBIA AVENUE,0.0,3.0,0.0,1.0,1.0,,,"507,360",2,278,2 OR MORE STORIES,1.0,1.0,,1.0,1.0,,2.0,1923834056.0,0.0,1.0,0.0,1.5,nan,3.0,1.0,1,,2.0,,"61,740",4258,42.00446076,-87.70802619,SF,40.0,1.0,5.0,10363300000000,1.0,,1/1/2020,2019.0,75.0,,7540.0,16.0,,605000.0,2020-02-14 00:00:00,Single Family Residence
32,1.0,2.0,2.0,0.0,1.0,1,0.0,4.0,0.0,,3811 NORTH KENNETH AVENUE,0.0,3.0,0.0,1.0,3.0,,,"321,450",1,202,SMALL 1 STORY,1.0,0.0,,0.0,1.0,,2.0,1924649045.0,0.0,2.0,0.0,1.5,nan,1.0,0.0,0,,2.0,,"60,000",3750,41.95024615,-87.7390692,SF,74.0,0.0,5.0,13221100000000,1.0,,1/1/2020,2019.0,71.0,,7174.0,59.0,,282000.0,2020-02-04 00:00:00,Single Family Residence
33,1.0,3.0,2.0,0.0,1.0,1.5,1.0,7.0,0.0,,4826 WEST BALMORAL AVENUE,0.0,2.0,1.0,1.0,3.0,,,"242,740",5,203,MEDIUM 1 STORY,1.0,2.0,,1.0,1.0,,2.0,1925608022.0,0.0,3.0,0.0,1.5,nan,1.0,0.0,0,,2.0,,"60,750",4500,41.97926444,-87.74927038,SF,560.0,0.0,2.0,13092100000000,1.0,,1/1/2020,2019.0,71.0,,71560.0,79.0,,347000.0,2020-02-10 00:00:00,Single Family Residence
34,1.0,2.0,2.0,0.0,1.0,1,0.0,4.0,0.0,,7232 NORTH ORIOLE AVENUE,0.0,3.0,0.0,1.0,3.0,,,"25,570",1,202,SMALL 1 STORY,1.0,2.0,,1.0,1.0,,2.0,,1.0,2.0,0.0,0,nan,0.0,0.0,0,,2.0,,"50,220",3720,42.01245925,-87.81672603,SF,361.0,0.0,5.0,9253280000000,1.0,,1/1/2020,2019.0,71.0,,71361.0,64.0,,575000.0,2020-01-28 00:00:00,Single Family Residence
35,3.0,4.0,2.0,0.0,1.0,2,0.0,10.0,2.0,,7237 WEST HOWARD STREET,0.0,3.0,0.0,1.0,1.0,,,"344,330",2,211,MULTI: 2 TO 6 UNITS,2.0,0.0,,0.0,2.0,,2.0,,0.0,2.0,0.0,1.5,nan,1.0,0.0,0,,2.0,,"50,620",3750,42.01867044,-87.80804257,MF,361.0,0.0,5.0,9254060000000,1.0,,1/1/2020,2019.0,71.0,,71361.0,61.0,,400000.0,2020-02-14 00:00:00,Apartment house (5+ units)
36,1.0,3.0,2.0,0.0,1.0,1,0.0,6.0,0.0,,6910 NORTH OTTAWA AVENUE,0.0,3.0,0.0,1.0,1.0,,,"309,030",1,203,MEDIUM 1 STORY,1.0,0.0,,0.0,2.0,,2.0,,0.0,2.0,0.0,1.5,nan,1.0,0.0,0,,2.0,,"55,590",4118,42.0063721,-87.81795720000001,SF,362.0,0.0,5.0,9361050000000,1.0,,1/1/2020,2019.0,71.0,,71362.0,92.0,,230000.0,2020-02-06 00:00:00,Single Family Residence
37,4.0,8.0,2.0,0.0,1.0,3,0.0,20.0,4.0,,6827 NORTH NORTHWEST HIGHWAY,0.0,3.0,0.0,1.0,2.0,,,"548,640",3,211,MULTI: 2 TO 6 UNITS,2.0,0.0,,0.0,2.0,,2.0,,0.0,2.0,0.0,1.5,nan,2.0,0.0,0,,2.0,,"75,600",5600,42.00523014,-87.81944146,MF,362.0,1.0,5.0,9361080000000,2.0,,1/1/2020,2019.0,71.0,,71362.0,94.0,,775000.0,2020-02-24 00:00:00,Apartment house (5+ units)
38,1.0,3.0,2.0,0.0,1.0,1,0.0,6.0,0.0,,7741 WEST COLUMBIA AVENUE,0.0,3.0,0.0,1.0,3.0,,,"213,510",1,203,MEDIUM 1 STORY,1.0,0.0,,0.0,1.0,,2.0,,0.0,2.0,0.0,1.5,nan,1.0,0.0,0,,2.0,,"42,180",3125,42.00251791,-87.82054882,SF,362.0,0.0,5.0,9363070000000,1.0,,1/1/2020,2019.0,71.0,,71362.0,63.0,,358000.0,2020-01-30 00:00:00,Single Family Residence
39,2.0,3.0,2.0,0.0,2.0,1.5,0.0,7.0,0.0,,6566 NORTH OLIPHANT AVENUE,0.0,1.0,1.0,1.0,3.0,,,"441,430",5,203,MEDIUM 1 STORY,1.0,2.0,,1.0,1.0,,2.0,,0.0,1.0,0.0,1.5,nan,1.0,0.0,0,,2.0,,"75,930",5625,42.00007212,-87.81932973,SF,362.0,0.0,5.0,9363130000000,1.0,,1/1/2020,2019.0,71.0,,71362.0,63.0,,329000.0,2020-02-06 00:00:00,Single Family Residence
40,1.0,3.0,2.0,0.0,1.0,1,0.0,5.0,0.0,,3117 WEST HOWARD STREET,0.0,3.0,0.0,1.0,1.0,,,"187,710",1,202,SMALL 1 STORY,1.0,0.0,,1.0,1.0,,2.0,,0.0,2.0,0.0,1.5,nan,1.0,0.0,0,,2.0,,"53,940",3720,42.01890147,-87.70741707,SF,10.0,0.0,5.0,10253000000000,1.0,,1/1/2020,2019.0,75.0,,7510.0,62.0,,275000.0,2020-02-11 00:00:00,Single Family Residence
41,1.0,2.0,2.0,0.0,2.0,1,1.0,4.0,0.0,,3017 WEST FARGO AVENUE,0.0,3.0,0.0,1.0,3.0,,,"279,530",1,202,SMALL 1 STORY,1.0,2.0,,0.0,1.0,,2.0,,0.0,2.0,0.0,1.5,nan,1.0,0.0,0,,2.0,,"53,940",3720,42.0162261,-87.70511409999999,SF,10.0,0.0,5.0,10253100000000,1.0,,1/1/2020,2019.0,75.0,,7510.0,69.0,,268000.0,2018-05-04 00:00:00,Single Family Residence
42,1.0,4.0,2.0,0.0,2.0,1.5,1.0,7.0,0.0,,2915 WEST SHERWIN AVENUE,0.0,1.0,1.0,1.0,1.0,,,"428,900",5,204,LARGE 1 STORY,1.0,0.0,,1.0,1.0,,2.0,,1.0,3.0,0.0,0,nan,0.0,0.0,0,,2.0,,"53,940",3720,42.01446576,-87.70268122,SF,10.0,0.0,5.0,10253200000000,1.0,,1/1/2020,2019.0,75.0,,7510.0,79.0,,399000.0,2020-02-04 00:00:00,Single Family Residence
43,2.0,3.0,2.0,0.0,1.0,2,1.0,6.0,0.0,,2504 WEST JARVIS AVENUE,0.0,3.0,0.0,1.0,1.0,,,"331,530",2,205,2 OR MORE STORIES,1.0,0.0,,0.0,1.0,,2.0,,0.0,2.0,0.0,0,nan,0.0,0.0,0,,2.0,,"53,940",3720,42.0161097,-87.69286483,SF,10.0,0.0,5.0,10254200000000,1.0,,1/1/2020,2019.0,75.0,,7510.0,65.0,,390000.0,2020-02-10 00:00:00,Single Family Residence
44,2.0,4.0,2.0,0.0,1.0,2,0.0,9.0,0.0,,2730 WEST CHASE AVENUE,0.0,3.0,0.0,1.0,3.0,,,"347,690",2,206,2 OR MORE STORIES,1.0,2.0,,1.0,1.0,,2.0,,0.0,2.0,0.0,0,nan,0.0,0.0,0,,2.0,,"53,940",3720,42.01417231,-87.6985432,SF,10.0,0.0,5.0,10254200000000,1.0,,1/1/2020,2019.0,75.0,,7510.0,65.0,,515000.0,2020-02-11 00:00:00,Single Family Residence
45,1.0,3.0,2.0,0.0,1.0,1,0.0,5.0,0.0,,6534 NORTH NATOMA AVENUE,0.0,3.0,0.0,1.0,3.0,,,"235,940",1,203,MEDIUM 1 STORY,1.0,2.0,,0.0,1.0,,2.0,,0.0,2.0,0.0,1,nan,1.0,0.0,0,,2.0,,"93,980",5874,42.00018963,-87.79277555,SF,410.0,0.0,5.0,10314100000000,1.0,,1/1/2020,2019.0,71.0,,71410.0,90.0,,385000.0,2020-02-05 00:00:00,Single Family Residence
46,2.0,4.0,2.0,0.0,2.0,2,1.0,8.0,0.0,,6631 WEST IMLAY STREET,0.0,3.0,0.0,1.0,1.0,,,"491,050",2,278,2 OR MORE STORIES,1.0,2.0,,1.0,1.0,,2.0,,0.0,2.0,0.0,1.5,nan,1.0,0.0,0,,2.0,,"68,000",4250,41.99888041,-87.79365067,SF,410.0,0.0,5.0,10314100000000,1.0,,1/1/2020,2019.0,71.0,,71410.0,7.0,,360000.0,2020-02-13 00:00:00,Single Family Residence
47,1.0,4.0,2.0,0.0,1.0,1.5,1.0,7.0,0.0,,7127 NORTH MERRIMAC AVENUE,0.0,1.0,1.0,1.0,3.0,,,"368,140",5,203,MEDIUM 1 STORY,1.0,0.0,,1.0,1.0,,2.0,,0.0,2.0,0.0,1.5,nan,1.0,0.0,0,,2.0,,"71,820",5320,42.0109672,-87.78275939,SF,461.0,0.0,5.0,10321300000000,1.0,,1/1/2020,2019.0,71.0,,71461.0,66.0,,463500.0,2020-02-14 00:00:00,Single Family Residence
48,2.0,4.0,2.0,0.0,2.0,2,1.0,8.0,0.0,,6944 NORTH TONTY AVENUE,0.0,3.0,0.0,1.0,3.0,,,"591,710",2,206,2 OR MORE STORIES,1.0,0.0,,0.0,1.0,,1.0,,0.0,3.0,0.0,1.5,nan,2.0,1.0,1,,2.0,,"201,860",14953,42.00742528,-87.77514268,SF,461.0,0.0,5.0,10322100000000,1.0,,1/1/2020,2019.0,71.0,,71461.0,74.0,,675000.0,2020-02-03 00:00:00,Single Family Residence
49,1.0,3.0,2.0,0.0,1.0,,1.0,6.0,0.0,,6926 NORTH CENTRAL AVENUE,0.0,3.0,0.0,3.0,1.0,,,"333,450",4,234,SPLIT LEVEL,1.0,0.0,,1.0,1.0,,2.0,,0.0,3.0,0.0,1.5,nan,1.0,0.0,0,,2.0,,"67,660",5012,42.00716275,-87.76209221,SF,463.0,1.0,5.0,10331200000000,1.0,,1/1/2020,2019.0,71.0,,71463.0,48.0,,350000.0,2020-02-06 00:00:00,Single Family Residence
50,1.0,3.0,2.0,0.0,1.0,,1.0,7.0,0.0,,6966 NORTH DOWAGIAC AVENUE,0.0,3.0,0.0,3.0,1.0,,,"419,420",4,234,SPLIT LEVEL,1.0,2.0,,1.0,1.0,,2.0,,0.0,3.0,0.0,1.5,nan,1.0,0.0,0,,2.0,,"67,500",5000,42.00770086,-87.76729203,SF,463.0,0.0,5.0,10331200000000,1.0,,1/1/2020,2019.0,71.0,,71463.0,43.0,,365000.0,2020-02-13 00:00:00,Single Family Residence
51,1.0,2.0,2.0,0.0,1.0,1.5,1.0,5.0,0.0,,6417 NORTH LEOTI AVENUE,0.0,1.0,1.0,1.0,3.0,,,"309,640",5,203,MEDIUM 1 STORY,1.0,2.0,,1.0,1.0,,2.0,,0.0,1.0,0.0,1.5,nan,1.0,0.0,0,,2.0,,"82,590",5162,41.99853397,-87.76409611,SF,21.0,0.0,5.0,10333200000000,1.0,,1/1/2020,2019.0,71.0,,7121.0,67.0,,385000.0,2020-02-24 00:00:00,Single Family Residence
52,1.0,4.0,2.0,0.0,1.0,1,2.0,7.0,0.0,,2755 WEST FITCH AVENUE,0.0,3.0,0.0,3.0,3.0,,,"268,840",1,203,MEDIUM 1 STORY,1.0,0.0,,1.0,1.0,,2.0,,0.0,2.0,0.0,0,nan,0.0,0.0,0,,2.0,,"62,060",4280,42.01091153,-87.69954996,SF,40.0,0.0,5.0,10362000000000,1.0,,1/1/2020,2019.0,75.0,,7540.0,64.0,,347500.0,2020-01-31 00:00:00,Single Family Residence
53,2.0,6.0,2.0,0.0,1.0,2,1.0,12.0,2.0,,2511 WEST COYLE AVENUE,0.0,3.0,0.0,1.0,3.0,,,"356,610",2,211,MULTI: 2 TO 6 UNITS,2.0,0.0,,0.0,2.0,,2.0,,2.0,2.0,0.0,1.5,nan,1.0,0.0,0,,2.0,,"67,420",4650,42.00742668,-87.69304289,MF,23.0,0.0,5.0,10362200000000,2.0,,1/1/2020,2019.0,75.0,,7523.0,94.0,,425000.0,2020-02-19 00:00:00,Apartment house (5+ units)
54,1.0,2.0,2.0,0.0,1.0,2,0.0,4.0,0.0,,7533 NORTH BELL AVENUE,0.0,3.0,0.0,3.0,3.0,,,"165,330",2,295,TOWNHOUSE,1.0,0.0,,1.0,1.0,,2.0,,0.0,2.0,0.0,0,nan,0.0,0.0,0,,2.0,,"22,180",1305,42.01826166,-87.68592897,SF,22.0,0.0,5.0,11303100000000,1.0,,1/1/2020,2019.0,75.0,,7522.0,61.0,,210000.0,2020-01-30 00:00:00,Townhouse
55,3.0,6.0,2.0,0.0,2.0,2,1.0,12.0,3.0,,7027 NORTH RIDGE BOULEVARD,0.0,3.0,0.0,1.0,3.0,,,"311,860",2,211,MULTI: 2 TO 6 UNITS,2.0,2.0,,0.0,1.0,,2.0,,0.0,2.0,0.0,0,nan,0.0,0.0,0,,2.0,,"59,160",4080,42.00969603,-87.68181157,MF,31.0,1.0,5.0,11311100000000,2.0,,1/1/2020,2019.0,75.0,,7531.0,100.0,,420000.0,2020-01-29 00:00:00,Apartment house (5+ units)
56,4.0,8.0,2.0,0.0,1.0,2,0.0,16.0,4.0,,6524 NORTH SEELEY AVENUE,0.0,3.0,0.0,1.0,3.0,,,"286,870",2,211,MULTI: 2 TO 6 UNITS,2.0,0.0,,1.0,1.0,,2.0,,1.0,2.0,0.0,0,nan,0.0,0.0,0,,2.0,,"106,250",6250,42.00049482,-87.68178802,MF,22.0,0.0,5.0,11313000000000,2.0,,1/1/2020,2019.0,75.0,,7522.0,63.0,,92000.0,2020-02-24 00:00:00,Apartment house (5+ units)
57,1.0,4.0,2.0,0.0,2.0,2,1.0,6.0,0.0,,1328 WEST LUNT AVENUE,0.0,2.0,3.0,1.0,1.0,,,"427,080",2,205,2 OR MORE STORIES,1.0,2.0,,0.0,2.0,,2.0,,0.0,4.0,0.0,1.5,nan,1.0,0.0,0,,2.0,,"100,340",6920,42.00948611,-87.66494703,SF,31.0,0.0,5.0,11321100000000,1.0,,1/1/2020,2019.0,75.0,,7531.0,115.0,,515000.0,2020-02-03 00:00:00,Single Family Residence
58,2.0,6.0,2.0,0.0,1.0,2,0.0,12.0,2.0,,6611 NORTH ASHLAND AVENUE,0.0,3.0,0.0,1.0,3.0,,,"335,130",2,211,MULTI: 2 TO 6 UNITS,2.0,0.0,,0.0,2.0,,2.0,,1.0,2.0,0.0,1.5,nan,1.0,0.0,0,,2.0,,"53,940",3720,42.0021088,-87.67015053,MF,31.0,1.0,5.0,11323100000000,2.0,,1/1/2020,2019.0,75.0,,7531.0,105.0,,420000.0,2020-02-21 00:00:00,Apartment house (5+ units)
59,2.0,6.0,2.0,0.0,2.0,2,2.0,12.0,2.0,,6419 NORTH WAYNE AVENUE,0.0,3.0,0.0,1.0,3.0,,,"474,770",2,211,MULTI: 2 TO 6 UNITS,2.0,0.0,,0.0,2.0,,2.0,,1.0,2.0,0.0,0,nan,0.0,0.0,0,,2.0,,"73,620",3875,41.99877462,-87.66396202,MF,60.0,0.0,5.0,11323300000000,2.0,,1/1/2020,2019.0,75.0,,7560.0,98.0,,550000.0,2020-01-31 00:00:00,Apartment house (5+ units)
60,1.0,2.0,2.0,0.0,1.0,1,0.0,4.0,0.0,,7332 WEST CLARENCE AVENUE,1.0,3.0,0.0,1.0,3.0,,,"224,800",1,202,SMALL 1 STORY,1.0,0.0,,0.0,1.0,,2.0,,1.0,2.0,0.0,1.5,nan,1.0,0.0,0,,2.0,,"46,310",3705,41.99476208,-87.8116729,SF,440.0,0.0,5.0,12012100000000,1.0,,1/1/2020,2019.0,71.0,,71440.0,89.0,,320000.0,2020-02-13 00:00:00,Single Family Residence
61,2.0,3.0,2.0,0.0,2.0,2,0.0,7.0,0.0,,7255 WEST PETERSON AVENUE,1.0,3.0,0.0,3.0,1.0,,,"314,490",2,207,2 OR MORE STORIES,1.0,0.0,,1.0,1.0,,2.0,,1.0,3.0,0.0,1.5,nan,2.0,1.0,1,,2.0,,"75,000",6000,41.98968963,-87.80910884,SF,440.0,0.0,5.0,12014000000000,1.0,,1/1/2020,2019.0,71.0,,71440.0,58.0,,424000.0,2020-02-24 00:00:00,Single Family Residence
62,1.0,3.0,2.0,0.0,1.0,1.5,0.0,5.0,0.0,,7457 WEST ARDMORE AVENUE,1.0,1.0,1.0,1.0,3.0,,,"219,310",5,203,MEDIUM 1 STORY,1.0,0.0,,1.0,1.0,,2.0,,0.0,3.0,0.0,1.5,nan,1.0,0.0,0,,2.0,,"61,870",4950,41.98476688,-87.81407443,SF,440.0,0.0,5.0,12014300000000,1.0,,1/1/2020,2019.0,71.0,,71440.0,64.0,,428000.0,2020-02-25 00:00:00,Single Family Residence
63,2.0,3.0,2.0,0.0,2.0,2,0.0,7.0,0.0,,7743 WEST BRYN MAWR AVENUE,1.0,3.0,0.0,1.0,3.0,,,"353,240",2,205,2 OR MORE STORIES,1.0,2.0,,1.0,1.0,,2.0,,0.0,3.0,0.0,1.5,nan,1.0,0.0,0,,2.0,,"62,000",4960,41.98117659,-87.82100722,SF,440.0,0.0,5.0,12121000000000,1.0,,1/1/2020,2019.0,71.0,,71440.0,71.0,,370000.0,2006-07-21 00:00:00,Single Family Residence
64,1.0,3.0,2.0,0.0,1.0,1.5,0.0,5.0,0.0,,7710 WEST FARRAGUT AVENUE,1.0,1.0,1.0,1.0,1.0,,,"197,480",5,203,MEDIUM 1 STORY,1.0,2.0,,0.0,1.0,,2.0,,0.0,2.0,0.0,2,nan,1.0,0.0,0,,2.0,,"62,000",4960,41.97537977,-87.81987616,SF,440.0,0.0,5.0,12121200000000,1.0,,1/1/2020,2019.0,71.0,,71440.0,74.0,,331500.0,2020-02-25 00:00:00,Single Family Residence
65,2.0,3.0,2.0,0.0,1.0,1,0.0,7.0,0.0,,5144 NORTH ODELL AVENUE,0.0,3.0,0.0,2.0,3.0,,,"204,880",1,203,MEDIUM 1 STORY,1.0,2.0,,0.0,1.0,,2.0,,0.0,2.0,0.0,1.5,nan,1.0,0.0,0,,2.0,,"64,040",6742,41.97395854,-87.81112431,SF,10.0,0.0,5.0,12124000000000,1.0,,1/1/2020,2019.0,26.0,,2610.0,71.0,,285000.0,2020-02-06 00:00:00,Single Family Residence
66,1.0,3.0,2.0,0.0,1.0,1,0.0,5.0,0.0,,4722 NORTH ODELL AVENUE,0.0,2.0,3.0,1.0,3.0,,,"193,350",1,203,MEDIUM 1 STORY,1.0,0.0,,0.0,2.0,,2.0,,0.0,2.0,0.0,1,nan,1.0,0.0,0,,2.0,,"35,910",3780,41.96622123,-87.81120392,SF,10.0,0.0,5.0,12132000000000,1.0,,1/1/2020,2019.0,26.0,,2610.0,62.0,,237000.0,2020-02-21 00:00:00,Single Family Residence
67,2.0,4.0,2.0,0.0,1.0,1,1.0,6.0,0.0,,8524 WEST SUNNYSIDE AVENUE,1.0,2.0,3.0,1.0,1.0,,,"309,080",1,203,MEDIUM 1 STORY,1.0,0.0,,1.0,1.0,,2.0,,0.0,2.0,0.0,1.5,nan,2.0,0.0,1,,2.0,,"89,100",7128,41.96151417,-87.84045188,SF,390.0,0.0,5.0,12141000000000,1.0,,1/1/2020,2019.0,71.0,,71390.0,60.0,,225000.0,1998-06-04 00:00:00,Single Family Residence
68,1.0,3.0,2.0,0.0,1.0,1.5,0.0,5.0,0.0,,4159 NORTH PITTSBURGH AVENUE,0.0,1.0,1.0,1.0,3.0,,,"172,670",5,203,MEDIUM 1 STORY,1.0,2.0,,1.0,1.0,,2.0,,0.0,2.0,0.0,1.5,nan,1.0,0.0,0,,2.0,,"49,770",3982,41.95569142,-87.83266883,SF,371.0,0.0,5.0,12144100000000,1.0,,1/1/2020,2019.0,71.0,,71371.0,71.0,,220000.0,2020-02-21 00:00:00,Single Family Residence
69,2.0,4.0,2.0,0.0,1.0,2,0.0,9.0,0.0,,3803 NORTH PANAMA AVENUE,0.0,1.0,3.0,1.0,3.0,,,"244,400",2,205,2 OR MORE STORIES,1.0,2.0,,0.0,1.0,,2.0,,1.0,1.0,0.0,1.5,nan,1.0,0.0,0,,2.0,,"46,500",3720,41.94881954,-87.82886714,SF,371.0,0.0,5.0,12232100000000,1.0,,1/1/2020,2019.0,71.0,,71371.0,91.0,,330000.0,2020-02-24 00:00:00,Single Family Residence
70,1.0,3.0,2.0,0.0,1.0,1.5,1.0,7.0,0.0,,3424 NORTH PAGE AVENUE,0.0,1.0,1.0,1.0,1.0,,,"263,790",5,203,MEDIUM 1 STORY,1.0,2.0,,1.0,1.0,,2.0,,0.0,2.0,0.0,1.5,nan,1.0,0.0,0,,2.0,,"46,870",3750,41.94191076,-87.82805682,SF,371.0,0.0,5.0,12234200000000,1.0,,1/1/2020,2019.0,71.0,,71371.0,62.0,,273000.0,2020-02-03 00:00:00,Single Family Residence
71,1.0,2.0,2.0,0.0,1.0,1,0.0,4.0,0.0,,3863 NORTH ORIOLE AVENUE,0.0,3.0,0.0,2.0,3.0,,,"202,890",1,203,MEDIUM 1 STORY,1.0,0.0,,0.0,1.0,,2.0,,0.0,1.0,0.0,1,nan,1.0,0.0,0,,2.0,,"46,500",3720,41.95054196,-87.8166141,SF,371.0,0.0,5.0,12242000000000,1.0,,1/1/2020,2019.0,71.0,,71371.0,69.0,,440000.0,2020-02-06 00:00:00,Single Family Residence
72,1.0,3.0,2.0,0.0,1.0,1,1.0,5.0,0.0,,3843 NORTH OSCEOLA AVENUE,0.0,3.0,0.0,1.0,3.0,,,"191,760",1,203,MEDIUM 1 STORY,1.0,0.0,,0.0,1.0,,2.0,,0.0,2.0,0.0,1.5,nan,1.0,0.0,0,,2.0,,"44,620",3570,41.9500934,-87.81294679,SF,371.0,0.0,5.0,12242100000000,1.0,,1/1/2020,2019.0,71.0,,71371.0,45.0,,287000.0,2020-01-30 00:00:00,Single Family Residence
73,1.0,2.0,2.0,0.0,1.0,1,0.0,5.0,0.0,,3642 NORTH OLCOTT AVENUE,0.0,3.0,0.0,2.0,3.0,,,"136,240",1,202,SMALL 1 STORY,1.0,0.0,,0.0,1.0,,2.0,,0.0,1.0,0.0,1.5,nan,1.0,0.0,0,,2.0,,"46,870",3750,41.946372700000005,-87.81473029,SF,371.0,0.0,5.0,12242300000000,1.0,,1/1/2020,2019.0,71.0,,71371.0,94.0,,165000.0,2020-01-30 00:00:00,Single Family Residence
74,1.0,2.0,2.0,0.0,1.0,1,0.0,4.0,0.0,,3216 NORTH OPAL AVENUE,0.0,3.0,0.0,4.0,3.0,,,"148,680",1,202,SMALL 1 STORY,1.0,0.0,,0.0,1.0,,2.0,,0.0,1.0,0.0,0,nan,0.0,0.0,0,,2.0,,"46,870",3750,41.9384217,-87.82300117,SF,371.0,0.0,2.0,12243300000000,1.0,,1/1/2020,2019.0,71.0,,71371.0,93.0,,147000.0,2020-02-18 00:00:00,Single Family Residence
75,1.0,3.0,2.0,0.0,1.0,1,1.0,6.0,0.0,,3423 NORTH OKETO AVENUE,0.0,3.0,0.0,1.0,3.0,,,"200,420",1,203,MEDIUM 1 STORY,1.0,0.0,,0.0,1.0,,2.0,,0.0,2.0,0.0,0,nan,0.0,0.0,0,,2.0,,"41,930",3355,41.94219332,-87.81129791,SF,371.0,0.0,5.0,12244100000000,1.0,,1/1/2020,2019.0,71.0,,71371.0,50.0,,277000.0,2020-02-05 00:00:00,Single Family Residence
76,1.0,3.0,2.0,0.0,1.0,1.5,0.0,4.0,0.0,,3405 NORTH OCONTO AVENUE,0.0,1.0,1.0,2.0,3.0,,,"131,630",5,203,MEDIUM 1 STORY,1.0,0.0,,0.0,1.0,,2.0,,0.0,1.0,0.0,1,nan,1.0,0.0,0,,2.0,,"62,200",4976,41.94177251,-87.80772517,SF,371.0,0.0,5.0,12244200000000,1.0,,1/1/2020,2019.0,71.0,,71371.0,98.0,,185000.0,2020-02-03 00:00:00,Single Family Residence
77,1.0,3.0,2.0,0.0,1.0,1,0.0,6.0,0.0,,3354 NORTH OSCEOLA AVENUE,0.0,2.0,3.0,1.0,1.0,,,"184,790",1,203,MEDIUM 1 STORY,1.0,0.0,,1.0,1.0,,2.0,,0.0,2.0,0.0,1.5,nan,1.0,0.0,0,,2.0,,"58,670",4694,41.94127765,-87.81333796,SF,371.0,0.0,5.0,12244200000000,1.0,,1/1/2020,2019.0,71.0,,71371.0,69.0,,225000.0,2020-02-14 00:00:00,Single Family Residence
78,1.0,2.0,2.0,0.0,1.0,1.5,0.0,5.0,0.0,,3226 NORTH OKETO AVENUE,0.0,1.0,1.0,3.0,3.0,,,"142,840",5,202,SMALL 1 STORY,1.0,0.0,,0.0,1.0,,2.0,,0.0,1.0,0.0,1,nan,1.0,0.0,0,,2.0,,"94,000",7520,41.93879464,-87.81182736,SF,371.0,0.0,5.0,12244300000000,1.0,,1/1/2020,2019.0,71.0,,71371.0,96.0,,225000.0,2020-02-13 00:00:00,Single Family Residence
79,1.0,3.0,2.0,0.0,1.0,1,0.0,5.0,0.0,,7916 WEST FLETCHER STREET,0.0,1.0,3.0,1.0,3.0,,,"144,050",1,203,MEDIUM 1 STORY,1.0,2.0,,0.0,2.0,,2.0,,1.0,2.0,0.0,1.5,nan,1.0,0.0,0,,2.0,,"30,220",3900,41.93714002,-87.82470639,SF,80.0,0.0,5.0,12251000000000,1.0,,1/1/2020,2019.0,20.0,,2080.0,90.0,,245000.0,2020-01-31 00:00:00,Single Family Residence
80,2.0,3.0,2.0,0.0,2.0,1.5,0.0,8.0,0.0,,2904 NORTH 77 COURT,0.0,1.0,1.0,1.0,3.0,,,"210,920",5,204,LARGE 1 STORY,1.0,2.0,,0.0,2.0,,2.0,,0.0,3.0,0.0,1.5,nan,1.0,0.0,0,,2.0,,"29,760",3840,41.93271143,-87.82034792,SF,80.0,0.0,5.0,12251200000000,1.0,,1/1/2020,2019.0,20.0,,2080.0,91.0,,257000.0,2020-02-06 00:00:00,Single Family Residence
81,2.0,3.0,2.0,0.0,1.0,1.5,0.0,7.0,0.0,,3012 NORTH OKETO AVENUE,0.0,1.0,1.0,1.0,1.0,,,"234,110",5,204,LARGE 1 STORY,1.0,0.0,,0.0,1.0,,2.0,,0.0,1.0,0.0,0,nan,0.0,0.0,0,,2.0,,"83,120",6650,41.93483898,-87.81188808,SF,371.0,0.0,5.0,12252100000000,1.0,,1/1/2020,2019.0,71.0,,71371.0,94.0,,317000.0,2020-02-10 00:00:00,Single Family Residence
82,2.0,3.0,2.0,0.0,1.0,1.5,0.0,7.0,0.0,,1932 NORTH 74 COURT,0.0,2.0,1.0,1.0,3.0,,,"190,100",5,204,LARGE 1 STORY,1.0,2.0,,1.0,1.0,,2.0,,0.0,3.0,0.0,1.5,nan,1.0,0.0,0,,2.0,,"32,200",4156,41.91557631,-87.81244954,SF,80.0,0.0,5.0,12364000000000,1.0,,1/1/2020,2019.0,20.0,,2080.0,69.0,,180000.0,2020-02-03 00:00:00,Single Family Residence
83,1.0,3.0,2.0,0.0,1.0,1,0.0,5.0,0.0,,6214 NORTH ALBANY AVENUE,0.0,3.0,0.0,1.0,3.0,,,"184,410",1,203,MEDIUM 1 STORY,1.0,0.0,,1.0,1.0,,2.0,,1.0,2.0,0.0,1.5,nan,1.0,0.0,0,,2.0,,"73,650",4092,41.99436694,-87.70716340000001,SF,41.0,0.0,5.0,13011100000000,1.0,,1/1/2020,2019.0,71.0,,7141.0,65.0,,240000.0,2020-02-06 00:00:00,Single Family Residence
84,3.0,6.0,2.0,0.0,1.0,2,0.0,8.0,2.0,,6133 NORTH RICHMOND STREET,0.0,3.0,0.0,1.0,3.0,,,"380,940",2,211,MULTI: 2 TO 6 UNITS,2.0,0.0,,0.0,1.0,,2.0,,0.0,2.0,0.0,0,nan,0.0,0.0,0,,2.0,,"73,650",4092,41.99318626,-87.70278384,MF,41.0,0.0,5.0,13011200000000,1.0,,1/1/2020,2019.0,71.0,,7141.0,65.0,,385000.0,2001-04-19 00:00:00,Apartment house (5+ units)
85,6.0,12.0,2.0,0.0,1.0,2,0.0,24.0,6.0,,6136 NORTH FRANCISCO AVENUE,0.0,3.0,0.0,1.0,2.0,,,"507,750",2,211,MULTI: 2 TO 6 UNITS,2.0,2.0,,0.0,2.0,,2.0,,1.0,2.0,0.0,0,nan,0.0,0.0,0,,2.0,,"73,650",4092,41.99328285,-87.70227259999999,MF,41.0,0.0,2.0,13011200000000,2.0,,1/1/2020,2019.0,71.0,,7141.0,51.0,,697000.0,2020-02-05 00:00:00,Apartment house (5+ units)
86,1.0,3.0,2.0,0.0,1.0,1,1.0,6.0,0.0,,6078 NORTH TROY STREET,0.0,3.0,0.0,1.0,3.0,,,"250,750",1,203,MEDIUM 1 STORY,1.0,0.0,,1.0,1.0,,2.0,,0.0,2.0,0.0,1,nan,1.0,0.0,0,,2.0,,"73,650",4092,41.99250555,-87.70831587,SF,41.0,0.0,5.0,13011200000000,1.0,,1/1/2020,2019.0,71.0,,7141.0,64.0,,250000.0,2020-01-30 00:00:00,Single Family Residence
87,3.0,6.0,2.0,0.0,1.0,3,0.0,18.0,3.0,,6221 NORTH FAIRFIELD AVENUE,0.0,3.0,0.0,1.0,3.0,,,"422,590",3,211,MULTI: 2 TO 6 UNITS,2.0,2.0,,0.0,2.0,,2.0,,0.0,2.0,0.0,2,nan,1.0,0.0,0,,2.0,,"67,500",3750,41.994687799999994,-87.69797472,MF,41.0,0.0,5.0,13012100000000,2.0,,1/1/2020,2019.0,71.0,,7141.0,89.0,,625000.0,2020-02-11 00:00:00,Apartment house (5+ units)
88,1.0,3.0,2.0,0.0,1.0,1.5,0.0,6.0,0.0,,6215 NORTH FAIRFIELD AVENUE,0.0,1.0,1.0,1.0,3.0,,,"217,220",5,204,LARGE 1 STORY,1.0,2.0,,0.0,2.0,,2.0,,1.0,2.0,0.0,1,nan,3.0,0.0,0,,2.0,,"67,500",3750,41.99452323,-87.69796936,SF,41.0,0.0,5.0,13012100000000,1.0,,1/1/2020,2019.0,71.0,,7141.0,95.0,,420000.0,2020-02-21 00:00:00,Single Family Residence
89,2.0,5.0,3.0,0.0,2.0,2,0.0,7.0,0.0,,5807 NORTH WHIPPLE STREET,0.0,3.0,0.0,1.0,1.0,,,"545,690",2,206,2 OR MORE STORIES,1.0,2.0,,1.0,1.0,,2.0,,0.0,2.0,0.0,1.5,nan,3.0,0.0,0,,2.0,,"100,130",5270,41.9869735,-87.70500293,SF,42.0,0.0,5.0,13013100000000,1.0,,1/1/2020,2019.0,71.0,,7142.0,81.0,,880000.0,2020-01-29 00:00:00,Single Family Residence
90,3.0,6.0,2.0,0.0,1.0,3,0.0,15.0,3.0,,5633 NORTH MOZART STREET,0.0,3.0,0.0,1.0,3.0,,,"439,380",3,211,MULTI: 2 TO 6 UNITS,2.0,0.0,,0.0,2.0,,2.0,,0.0,2.0,0.0,2.5,nan,2.0,0.0,0,,2.0,,"70,680",3720,41.98412753,-87.70005523,MF,42.0,0.0,5.0,13013300000000,2.0,,1/1/2020,2019.0,71.0,,7142.0,91.0,,450000.0,2020-01-30 00:00:00,Apartment house (5+ units)
91,2.0,6.0,2.0,0.0,1.0,2,0.0,12.0,2.0,,5915 NORTH ARTESIAN AVENUE,0.0,3.0,0.0,1.0,3.0,,,"346,920",2,211,MULTI: 2 TO 6 UNITS,2.0,0.0,,0.0,2.0,,2.0,,0.0,2.0,0.0,1.5,nan,2.0,0.0,0,,2.0,,"66,960",3720,41.98910581,-87.69049147,MF,41.0,0.0,5.0,13014100000000,2.0,,1/1/2020,2019.0,71.0,,7141.0,93.0,,438000.0,2020-02-24 00:00:00,Apartment house (5+ units)
92,1.0,4.0,2.0,0.0,1.0,2,1.0,6.0,0.0,,5954 NORTH KNOX AVENUE,0.0,3.0,0.0,1.0,3.0,,,"507,850",2,205,2 OR MORE STORIES,1.0,2.0,,0.0,1.0,,2.0,,0.0,3.0,0.0,1,nan,2.0,0.0,1,,2.0,,"77,760",4860,41.98963431,-87.74487048,SF,22.0,1.0,2.0,13033000000000,1.0,,1/1/2020,2019.0,71.0,,7122.0,67.0,,405000.0,2020-02-25 00:00:00,Single Family Residence
93,1.0,4.0,2.0,0.0,2.0,1.5,1.0,6.0,0.0,,5928 NORTH KOSTNER AVENUE,0.0,2.0,1.0,1.0,3.0,,,"333,630",5,203,MEDIUM 1 STORY,1.0,2.0,,0.0,1.0,,2.0,,0.0,2.0,0.0,1.5,nan,2.0,0.0,0,,2.0,,"75,390",4712,41.98902231,-87.73869158,SF,22.0,0.0,5.0,13033100000000,1.0,,1/1/2020,2019.0,71.0,,7122.0,89.0,,565000.0,2020-02-05 00:00:00,Single Family Residence
94,1.0,2.0,2.0,0.0,1.0,1,0.0,5.0,0.0,,5902 NORTH INDIAN ROAD,0.0,3.0,0.0,1.0,3.0,,,"221,230",1,203,MEDIUM 1 STORY,1.0,0.0,,0.0,1.0,,2.0,,0.0,2.0,0.0,1.5,nan,1.0,0.0,0,,2.0,,"54,000",4000,41.98761048,-87.76496206,SF,10.0,0.0,5.0,13043000000000,1.0,,1/1/2020,2019.0,71.0,,7110.0,67.0,,297000.0,2020-02-05 00:00:00,Single Family Residence
95,2.0,4.0,2.0,0.0,1.0,2,1.0,12.0,2.0,,6125 NORTH MOODY AVENUE,0.0,3.0,0.0,1.0,1.0,,,"398,770",2,211,MULTI: 2 TO 6 UNITS,2.0,0.0,,1.0,1.0,,2.0,,1.0,2.0,0.0,1.5,nan,2.0,0.0,0,,2.0,,"93,600",5850,41.992751,-87.78124969,MF,410.0,0.0,5.0,13051100000000,1.0,,1/1/2020,2019.0,71.0,,71410.0,71.0,,215000.0,2020-01-30 00:00:00,Apartment house (5+ units)
96,1.0,3.0,2.0,0.0,1.0,1,1.0,6.0,0.0,,5975 WEST MIAMI AVENUE,0.0,3.0,0.0,1.0,3.0,,,"282,850",1,203,MEDIUM 1 STORY,1.0,0.0,,0.0,1.0,,2.0,,0.0,2.0,0.0,0,nan,0.0,0.0,0,,2.0,,"80,480",5962,41.99161799,-87.77749318,SF,10.0,0.0,5.0,13052100000000,1.0,,1/1/2020,2019.0,71.0,,7110.0,63.0,,175000.0,2020-02-21 00:00:00,Single Family Residence
97,2.0,4.0,2.0,0.0,1.0,1,0.0,7.0,0.0,,5737 NORTH MERRIMAC AVENUE,0.0,3.0,0.0,1.0,1.0,,,"242,670",1,203,MEDIUM 1 STORY,1.0,2.0,,0.0,2.0,,2.0,,1.0,2.0,0.0,0,nan,0.0,0.0,0,,2.0,,"59,520",3720,41.98582541,-87.78369151,SF,410.0,0.0,2.0,13053200000000,1.0,,1/1/2020,2019.0,71.0,,71410.0,90.0,,405000.0,2020-02-11 00:00:00,Single Family Residence
98,1.0,3.0,2.0,0.0,1.0,1.5,0.0,5.0,0.0,,5921 NORTH LEONARD AVENUE,0.0,1.0,1.0,1.0,3.0,,,"249,130",5,203,MEDIUM 1 STORY,1.0,2.0,,0.0,1.0,,2.0,,0.0,2.0,0.0,1.5,nan,1.0,0.0,0,,2.0,,"50,620",3750,41.98972653,-87.77254302,SF,10.0,0.0,5.0,13054000000000,1.0,,1/1/2020,2019.0,71.0,,7110.0,94.0,,360000.0,2020-01-29 00:00:00,Single Family Residence
99,1.0,3.0,2.0,0.0,1.0,1.5,0.0,6.0,0.0,,5846 NORTH LEONARD AVENUE,0.0,2.0,3.0,1.0,3.0,,,"283,120",5,203,MEDIUM 1 STORY,1.0,2.0,,0.0,1.0,,2.0,,1.0,2.0,0.0,1.5,nan,1.0,0.0,0,,2.0,,"50,620",3750,41.98830179,-87.77101711,SF,10.0,0.0,5.0,13054100000000,1.0,,1/1/2020,2019.0,71.0,,7110.0,91.0,,355000.0,2020-02-21 00:00:00,Single Family Residence
100,1.0,4.0,2.0,0.0,1.0,1.5,0.0,6.0,0.0,,5739 NORTH MARMORA AVENUE,0.0,1.0,1.0,1.0,3.0,,,"210,570",5,203,MEDIUM 1 STORY,1.0,0.0,,0.0,1.0,,2.0,,1.0,1.0,0.0,1.5,nan,1.0,0.0,0,,2.0,,"48,190",3570,41.98520797,-87.77460387,SF,10.0,0.0,5.0,13054200000000,1.0,,1/1/2020,2019.0,71.0,,7110.0,93.0,,250000.0,2020-02-05 00:00:00,Single Family Residence
101,1.0,3.0,2.0,0.0,1.0,1,0.0,5.0,0.0,,5652 NORTH MASON AVENUE,0.0,2.0,1.0,1.0,3.0,,,"233,260",1,203,MEDIUM 1 STORY,1.0,0.0,,0.0,1.0,,2.0,,0.0,2.0,0.0,1.5,nan,1.0,0.0,0,,2.0,,"50,220",3720,41.98443571,-87.77714548,SF,10.0,0.0,5.0,13054300000000,1.0,,1/1/2020,2019.0,71.0,,7110.0,79.0,,387000.0,2020-02-03 00:00:00,Single Family Residence
102,1.0,2.0,3.0,0.0,1.0,1,0.0,4.0,0.0,,6012 NORTH WEST CIRCLE AVENUE,1.0,3.0,0.0,2.0,3.0,,,"281,170",1,203,MEDIUM 1 STORY,1.0,0.0,,0.0,1.0,,2.0,,0.0,1.0,0.0,0,nan,0.0,0.0,0,,2.0,,"86,280",6903,41.99067742,-87.80329851,SF,420.0,0.0,5.0,13061200000000,1.0,,1/1/2020,2019.0,71.0,,71420.0,100.0,,350000.0,2020-02-05 00:00:00,Single Family Residence
103,2.0,4.0,2.0,0.0,2.0,2,1.0,8.0,0.0,,5953 NORTH NINA AVENUE,1.0,3.0,0.0,3.0,3.0,,,"435,710",2,206,2 OR MORE STORIES,1.0,0.0,,1.0,1.0,,2.0,,0.0,3.0,0.0,1.5,nan,1.0,0.0,0,,2.0,,"183,880",14711,41.98884869,-87.80097817,SF,420.0,0.0,5.0,13063100000000,1.0,,1/1/2020,2019.0,71.0,,71420.0,66.0,,525000.0,2020-02-06 00:00:00,Single Family Residence
104,2.0,4.0,2.0,0.0,2.0,2,1.0,7.0,0.0,,5730 NORTH NEWCASTLE AVENUE,1.0,3.0,0.0,1.0,3.0,,,"524,340",2,278,2 OR MORE STORIES,1.0,1.0,,1.0,1.0,,2.0,,0.0,2.0,0.0,1.5,nan,2.0,0.0,0,,2.0,,"88,870",7110,41.98592639,-87.79800609,SF,420.0,0.0,5.0,13063100000000,1.0,,1/1/2020,2019.0,71.0,,71420.0,13.0,,865500.0,2020-02-24 00:00:00,Single Family Residence
105,1.0,3.0,2.0,0.0,1.0,1,0.0,5.0,0.0,,5608 NORTH NEVA AVENUE,1.0,3.0,0.0,2.0,3.0,,,"256,740",1,203,MEDIUM 1 STORY,1.0,0.0,,0.0,1.0,,2.0,,0.0,1.0,0.0,1,nan,1.0,0.0,0,,2.0,,"109,370",8750,41.98305686,-87.80577757,SF,420.0,1.0,5.0,13063200000000,1.0,,1/1/2020,2019.0,71.0,,71420.0,85.0,,267000.0,2020-02-05 00:00:00,Single Family Residence
106,2.0,5.0,2.0,0.0,1.0,2,0.0,8.0,0.0,,5644 NORTH NATOMA AVENUE,1.0,1.0,1.0,1.0,1.0,,,"490,900",2,206,2 OR MORE STORIES,1.0,2.0,,1.0,1.0,,2.0,,0.0,2.0,0.0,1.5,nan,2.0,1.0,1,,2.0,,"125,000",10000,41.98412822,-87.79369049,SF,420.0,0.0,5.0,13064200000000,1.0,,1/1/2020,2019.0,71.0,,71420.0,66.0,,655000.0,2020-02-05 00:00:00,Single Family Residence
107,1.0,3.0,2.0,0.0,1.0,1.5,1.0,5.0,0.0,,7046 WEST BERWYN AVENUE,1.0,1.0,1.0,1.0,1.0,,,"125,110",5,203,MEDIUM 1 STORY,1.0,0.0,,0.0,2.0,,2.0,,0.0,2.0,0.0,1.5,nan,2.0,0.0,0,,2.0,,"31,250",2500,41.977340500000004,-87.8042389,SF,430.0,0.0,5.0,13071200000000,1.0,,1/1/2020,2019.0,71.0,,71430.0,64.0,,178000.0,2020-02-06 00:00:00,Single Family Residence
108,1.0,2.0,2.0,0.0,1.0,1,0.0,4.0,0.0,,7105 WEST BERWYN AVENUE,1.0,3.0,0.0,1.0,1.0,,,"245,870",1,203,MEDIUM 1 STORY,1.0,2.0,,1.0,1.0,,2.0,,0.0,2.0,0.0,0,nan,0.0,0.0,0,,2.0,,"46,250",3700,41.9768786,-87.80503079,SF,430.0,0.0,5.0,13071300000000,1.0,,1/1/2020,2019.0,71.0,,71430.0,64.0,,377500.0,2020-02-05 00:00:00,Single Family Residence
109,1.0,3.0,2.0,0.0,1.0,2,0.0,6.0,0.0,,5410 NORTH NORMANDY AVENUE,1.0,3.0,0.0,1.0,1.0,,,"223,410",2,205,2 OR MORE STORIES,1.0,2.0,,1.0,1.0,,2.0,,0.0,1.0,0.0,0,nan,0.0,0.0,0,,2.0,,"45,750",3660,41.97962437,-87.79420742,SF,430.0,0.0,5.0,13072100000000,1.0,,1/1/2020,2019.0,71.0,,71430.0,100.0,,245000.0,2020-02-13 00:00:00,Single Family Residence
110,1.0,3.0,2.0,0.0,1.0,1,0.0,4.0,0.0,,5430 NORTH NATCHEZ AVENUE,0.0,3.0,0.0,1.0,3.0,,,"206,090",1,203,MEDIUM 1 STORY,1.0,2.0,,0.0,1.0,,2.0,,0.0,2.0,0.0,0,nan,0.0,0.0,0,,2.0,,"46,500",3720,41.98020954,-87.78934551,SF,430.0,0.0,5.0,13072200000000,1.0,,1/1/2020,2019.0,71.0,,71430.0,60.0,,360000.0,2020-02-04 00:00:00,Single Family Residence
111,1.0,2.0,2.0,0.0,1.0,1,0.0,4.0,0.0,,5145 NORTH NOTTINGHAM AVENUE,0.0,3.0,0.0,2.0,3.0,,,"221,240",1,203,MEDIUM 1 STORY,1.0,0.0,,1.0,1.0,,2.0,,0.0,3.0,0.0,1,nan,1.0,0.0,0,,2.0,,"57,500",4600,41.97505623,-87.80324267,SF,430.0,0.0,5.0,13073100000000,1.0,,1/1/2020,2019.0,71.0,,71430.0,67.0,,200000.0,2020-02-10 00:00:00,Single Family Residence
112,1.0,4.0,2.0,0.0,1.0,1,0.0,6.0,0.0,,5439 NORTH MOODY AVENUE,0.0,3.0,0.0,1.0,3.0,,,"269,570",1,203,MEDIUM 1 STORY,1.0,0.0,,1.0,1.0,,2.0,,0.0,2.0,0.0,1.5,nan,2.0,0.0,0,,2.0,,"54,750",4380,41.980409,-87.78186647,SF,430.0,0.0,5.0,13081100000000,1.0,,1/1/2020,2019.0,71.0,,71430.0,60.0,,306000.0,2020-02-24 00:00:00,Residential - Vacant Land
113,1.0,2.0,2.0,0.0,1.0,1,0.0,4.0,0.0,,5345 NORTH NAGLE AVENUE,0.0,3.0,0.0,1.0,1.0,,,"166,270",1,202,SMALL 1 STORY,1.0,0.0,,1.0,1.0,,2.0,,0.0,2.0,0.0,1.5,nan,1.0,0.0,0,,2.0,,"49,600",3968,41.97884326,-87.78746179,SF,430.0,1.0,5.0,13081200000000,1.0,,1/1/2020,2019.0,71.0,,71430.0,64.0,,320000.0,2020-02-06 00:00:00,Single Family Residence
114,1.0,3.0,2.0,0.0,2.0,1.5,1.0,7.0,0.0,,4912 NORTH MOBILE AVENUE,0.0,1.0,1.0,1.0,3.0,,,"269,780",5,203,MEDIUM 1 STORY,1.0,0.0,,0.0,1.0,,2.0,,0.0,2.0,0.0,0,nan,0.0,0.0,0,,2.0,,"62,000",4960,41.97071365,-87.78589737,SF,430.0,0.0,5.0,13083100000000,1.0,,1/1/2020,2019.0,71.0,,71430.0,76.0,,347000.0,2020-02-06 00:00:00,Single Family Residence
115,2.0,2.0,2.0,0.0,1.0,1,0.0,5.0,0.0,,5025 NORTH MULLIGAN AVENUE,0.0,1.0,1.0,1.0,1.0,,,"224,030",1,202,SMALL 1 STORY,1.0,0.0,,1.0,1.0,,2.0,,0.0,2.0,0.0,1.5,nan,1.0,0.0,0,,2.0,,"57,420",4594,41.97281472,-87.78636936,SF,430.0,0.0,5.0,13083300000000,1.0,,1/1/2020,2019.0,71.0,,71430.0,64.0,,300000.0,2020-02-11 00:00:00,Single Family Residence
116,2.0,4.0,2.0,0.0,1.0,2,0.0,10.0,2.0,,5547 NORTH LUNA AVENUE,0.0,3.0,0.0,1.0,3.0,,,"246,830",2,211,MULTI: 2 TO 6 UNITS,2.0,2.0,,0.0,2.0,,2.0,,1.0,2.0,0.0,1.5,nan,1.0,0.0,0,,2.0,,"55,680",4125,41.98251615,-87.76678177,MF,10.0,0.0,5.0,13091000000000,1.0,,1/1/2020,2019.0,71.0,,7110.0,94.0,,408000.0,2020-01-30 00:00:00,Apartment house (5+ units)
117,2.0,3.0,2.0,0.0,1.0,1.5,0.0,5.0,0.0,,5501 NORTH LINDER AVENUE,0.0,1.0,1.0,1.0,3.0,,,"259,230",5,203,MEDIUM 1 STORY,1.0,2.0,,1.0,1.0,,2.0,,0.0,2.0,0.0,1.5,nan,2.0,0.0,0,,2.0,,"81,540",6040,41.98129401,-87.76558445,SF,10.0,0.0,5.0,13091000000000,1.0,,1/1/2020,2019.0,71.0,,7110.0,70.0,,240000.0,2020-02-06 00:00:00,Single Family Residence
118,2.0,4.0,2.0,0.0,1.0,2,0.0,10.0,2.0,,5457 NORTH LYNCH AVENUE,0.0,3.0,0.0,1.0,3.0,,,"280,840",2,211,MULTI: 2 TO 6 UNITS,2.0,0.0,,0.0,2.0,,2.0,,1.0,2.0,0.0,0,nan,0.0,0.0,0,,2.0,,"62,770",4650,41.98043653,-87.76156836,MF,10.0,0.0,5.0,13091300000000,2.0,,1/1/2020,2019.0,71.0,,7110.0,92.0,,415000.0,2020-02-05 00:00:00,Apartment house (5+ units)
119,1.0,3.0,2.0,0.0,1.0,1,0.0,5.0,0.0,,5367 NORTH LYNCH AVENUE,0.0,3.0,0.0,1.0,1.0,,,"268,320",1,203,MEDIUM 1 STORY,1.0,2.0,,1.0,1.0,,2.0,,0.0,2.0,0.0,1.5,nan,1.0,0.0,0,,2.0,,"50,220",3720,41.97886141,-87.76369163,SF,10.0,0.0,5.0,13091300000000,1.0,,1/1/2020,2019.0,71.0,,7110.0,65.0,,318000.0,2020-01-29 00:00:00,Single Family Residence
120,2.0,4.0,2.0,0.0,1.0,1.5,0.0,7.0,0.0,,5225 NORTH LEAMINGTON AVENUE,0.0,1.0,1.0,3.0,3.0,,,"290,780",5,203,MEDIUM 1 STORY,1.0,0.0,,0.0,1.0,,2.0,,1.0,1.0,0.0,1.5,nan,1.0,0.0,0,,2.0,,"52,240",3870,41.9760292,-87.75619246,SF,10.0,0.0,5.0,13092200000000,1.0,,1/1/2020,2019.0,71.0,,7110.0,95.0,,336000.0,2019-12-18 00:00:00,Single Family Residence
121,5.0,10.0,2.0,0.0,1.0,2,5.0,20.0,5.0,,5520 WEST EDMUNDS STREET,0.0,3.0,0.0,3.0,1.0,,,"585,630",2,211,MULTI: 2 TO 6 UNITS,2.0,2.0,,1.0,1.0,,2.0,,0.0,2.0,0.0,0,nan,2.0,1.0,1,,2.0,,"74,280",5123,41.97137132,-87.76588222,MF,402.0,0.0,5.0,13093200000000,2.0,,1/1/2020,2019.0,71.0,,71402.0,10.0,,1200000.0,2020-02-11 00:00:00,Apartment house (5+ units)
122,1.0,2.0,2.0,0.0,1.0,1,0.0,4.0,0.0,,4927 WEST WINONA STREET,0.0,3.0,0.0,2.0,3.0,,,"228,900",1,203,MEDIUM 1 STORY,1.0,0.0,,0.0,1.0,,2.0,,0.0,1.0,0.0,1,nan,1.0,0.0,0,,2.0,,"54,370",3750,41.97411215,-87.75153631,SF,60.0,0.0,5.0,13094100000000,1.0,,1/1/2020,2019.0,71.0,,7160.0,95.0,,287500.0,2020-02-05 00:00:00,Single Family Residence
123,1.0,2.0,2.0,0.0,1.0,1,0.0,4.0,0.0,,4950 WEST CARMEN AVENUE,0.0,3.0,0.0,1.0,3.0,,,"182,420",1,202,SMALL 1 STORY,1.0,0.0,,0.0,1.0,,2.0,,0.0,2.0,0.0,1.5,nan,1.0,0.0,0,,2.0,,"45,310",3125,41.97371589,-87.75235153,SF,60.0,0.0,5.0,13094100000000,1.0,,1/1/2020,2019.0,71.0,,7160.0,62.0,,240000.0,2020-01-31 00:00:00,Single Family Residence
124,1.0,3.0,2.0,0.0,1.0,1,0.0,5.0,0.0,,4938 WEST WINNEMAC AVENUE,0.0,3.0,0.0,1.0,3.0,,,"204,570",1,203,MEDIUM 1 STORY,1.0,0.0,,0.0,1.0,,2.0,,0.0,2.0,0.0,1.5,nan,1.0,0.0,0,,2.0,,"56,180",3875,41.97280663,-87.75185356,SF,60.0,0.0,5.0,13094100000000,1.0,,1/1/2020,2019.0,71.0,,7160.0,99.0,,280500.0,2020-01-30 00:00:00,Single Family Residence
125,1.0,3.0,2.0,0.0,1.0,1,0.0,4.0,0.0,,5035 NORTH TRIPP AVENUE,0.0,3.0,0.0,2.0,3.0,,,"230,200",1,203,MEDIUM 1 STORY,1.0,0.0,,0.0,1.0,,2.0,,0.0,1.0,0.0,1,nan,1.0,0.0,0,,2.0,,"42,860",3175,41.97290516,-87.73397337,SF,71.0,0.0,5.0,13104100000000,1.0,,1/1/2020,2019.0,71.0,,7171.0,100.0,,310000.0,2020-02-05 00:00:00,Single Family Residence
126,1.0,2.0,2.0,0.0,1.0,1,0.0,5.0,0.0,,4925 NORTH KARLOV AVENUE,0.0,1.0,3.0,1.0,3.0,,,"245,100",1,203,MEDIUM 1 STORY,1.0,0.0,,0.0,1.0,,2.0,,1.0,2.0,0.0,1.5,nan,1.0,0.0,0,,2.0,,"57,130",4232,41.97081404,-87.73021594,SF,71.0,0.0,5.0,13104200000000,1.0,,1/1/2020,2019.0,71.0,,7171.0,97.0,,351000.0,2020-02-21 00:00:00,Single Family Residence
127,3.0,6.0,2.0,0.0,1.0,2,0.0,12.0,2.0,,5434 NORTH SPAULDING AVENUE,0.0,3.0,0.0,1.0,3.0,,,"306,730",2,211,MULTI: 2 TO 6 UNITS,2.0,0.0,,0.0,2.0,,2.0,,1.0,1.0,0.0,1.5,nan,1.0,0.0,0,,2.0,,"53,940",3720,41.98041257,-87.71157744,MF,50.0,0.0,5.0,13112100000000,1.0,,1/1/2020,2019.0,71.0,,7150.0,91.0,,531000.0,2020-02-05 00:00:00,Apartment house (5+ units)
128,1.0,5.0,2.0,0.0,2.0,1,0.0,9.0,0.0,,5348 NORTH BERNARD STREET,0.0,2.0,3.0,1.0,3.0,,,"336,780",1,203,MEDIUM 1 STORY,1.0,2.0,,0.0,2.0,,2.0,,0.0,2.0,0.0,1.5,nan,1.0,0.0,0,,2.0,,"53,940",3720,41.97895765,-87.71519031,SF,50.0,0.0,5.0,13112100000000,1.0,,1/1/2020,2019.0,71.0,,7150.0,105.0,,320000.0,2020-02-13 00:00:00,Single Family Residence
129,2.0,4.0,2.0,0.0,1.0,1.5,0.0,6.0,0.0,,5028 NORTH CENTRAL PARK AVENUE,0.0,2.0,1.0,1.0,1.0,,,"233,540",5,203,MEDIUM 1 STORY,1.0,2.0,,0.0,1.0,,2.0,,1.0,2.0,0.0,1.5,nan,1.0,0.0,0,,2.0,,"54,370",3750,41.97285815,-87.71872744,SF,81.0,0.0,5.0,13113100000000,1.0,,1/1/2020,2019.0,71.0,,7181.0,95.0,,202000.0,2018-10-17 00:00:00,Single Family Residence
130,2.0,2.0,2.0,0.0,2.0,3,1.0,6.0,0.0,,5005 NORTH LINCOLN AVENUE,0.0,3.0,0.0,2.0,3.0,,,"464,800",3,295,TOWNHOUSE,1.0,2.0,,1.0,1.0,,2.0,,0.0,2.0,0.0,1.5,nan,2.0,1.0,1,,2.0,,"27,190",1133,41.97247382,-87.69017917,SF,110.0,0.0,5.0,13124100000000,2.0,,1/1/2020,2019.0,71.0,,71110.0,12.0,,603000.0,2020-02-11 00:00:00,Townhouse
131,2.0,5.0,2.0,0.0,1.0,2,0.0,10.0,2.0,,2513 WEST AINSLIE STREET,0.0,3.0,0.0,1.0,3.0,,,"517,410",2,211,MULTI: 2 TO 6 UNITS,2.0,2.0,,0.0,2.0,,2.0,,1.0,2.0,0.0,1.5,nan,1.0,0.0,0,,2.0,,"115,920",4830,41.97047414,-87.69197975,MF,110.0,0.0,5.0,13124200000000,1.0,,1/1/2020,2019.0,71.0,,71110.0,97.0,,630000.0,2020-02-20 00:00:00,Apartment house (5+ units)
132,3.0,8.0,2.0,0.0,1.0,2,0.0,17.0,3.0,,4815 NORTH FAIRFIELD AVENUE,0.0,3.0,0.0,1.0,2.0,,,"667,440",2,211,MULTI: 2 TO 6 UNITS,2.0,2.0,,0.0,2.0,,2.0,,1.0,2.0,0.0,0,nan,0.0,0.0,0,,2.0,,"62,490",2604,41.96906085,-87.69719152,MF,110.0,0.0,5.0,13124200000000,2.0,,1/1/2020,2019.0,71.0,,71110.0,95.0,,710000.0,2020-01-31 00:00:00,Apartment house (5+ units)
133,2.0,4.0,2.0,0.0,1.0,2,0.0,7.0,2.0,,4719 NORTH WHIPPLE STREET,0.0,3.0,0.0,1.0,3.0,,,"396,390",2,211,MULTI: 2 TO 6 UNITS,2.0,2.0,,0.0,1.0,,2.0,,0.0,2.0,0.0,1,nan,1.0,0.0,0,,2.0,,"54,370",3750,41.96731012,-87.70441767,MF,81.0,0.0,5.0,13131000000000,1.0,,1/1/2020,2019.0,71.0,,7181.0,104.0,,400000.0,2020-02-13 00:00:00,Apartment house (5+ units)
134,1.0,4.0,2.0,0.0,1.0,1.5,0.0,8.0,0.0,,4737 NORTH SACRAMENTO AVENUE,0.0,2.0,1.0,1.0,1.0,,,"449,580",5,204,LARGE 1 STORY,1.0,2.0,,1.0,1.0,,2.0,,1.0,2.0,0.0,1,nan,1.0,0.0,0,,2.0,,"101,280",4220,41.96777198,-87.70320892,SF,110.0,0.0,5.0,13131000000000,1.0,,1/1/2020,2019.0,71.0,,71110.0,96.0,,635000.0,2020-02-14 00:00:00,Single Family Residence
135,2.0,5.0,2.0,0.0,1.0,2,0.0,11.0,2.0,,2512 WEST CULLOM AVENUE,0.0,3.0,0.0,1.0,3.0,,,"500,090",2,211,MULTI: 2 TO 6 UNITS,2.0,0.0,,0.0,2.0,,2.0,,1.0,2.0,0.0,1.5,nan,1.0,0.0,0,,2.0,,"90,000",3750,41.95972939,-87.69237681,MF,110.0,0.0,5.0,13134000000000,1.0,,1/1/2020,2019.0,71.0,,71110.0,105.0,,500000.0,2020-02-18 00:00:00,Apartment house (5+ units)
136,1.0,4.0,3.0,0.0,1.0,2,1.0,6.0,0.0,,3334 WEST EASTWOOD AVENUE,0.0,1.0,3.0,1.0,3.0,,,"257,760",2,205,2 OR MORE STORIES,1.0,2.0,,0.0,2.0,,2.0,,1.0,1.0,0.0,2.5,nan,1.0,0.0,0,,2.0,,"59,160",4080,41.96583012,-87.71222572,SF,81.0,0.0,5.0,13142000000000,1.0,,1/1/2020,2019.0,71.0,,7181.0,112.0,,245000.0,2015-02-23 00:00:00,Single Family Residence
137,2.0,4.0,2.0,0.0,1.0,2,1.0,8.0,0.0,,4335 NORTH HAMLIN AVENUE,0.0,1.0,3.0,1.0,3.0,,,"307,810",2,206,2 OR MORE STORIES,1.0,2.0,,0.0,1.0,,2.0,,0.0,1.0,0.0,1.5,nan,1.0,0.0,0,,2.0,,"103,110",4687,41.96024448,-87.72255363,SF,82.0,0.0,5.0,13143000000000,1.0,,1/1/2020,2019.0,71.0,,7182.0,120.0,,675000.0,2020-01-30 00:00:00,Single Family Residence
138,4.0,8.0,2.0,0.0,1.0,2,0.0,20.0,4.0,,4303 NORTH SAWYER AVENUE,0.0,3.0,0.0,2.0,3.0,,,"573,310",2,211,MULTI: 2 TO 6 UNITS,2.0,2.0,,1.0,1.0,,2.0,,0.0,1.0,0.0,0,nan,0.0,0.0,0,,2.0,,"82,500",3750,41.95955303,-87.70906644,MF,82.0,0.0,5.0,13144100000000,1.0,,1/1/2020,2019.0,71.0,,7182.0,103.0,,643000.0,2020-02-04 00:00:00,Apartment house (5+ units)
139,1.0,3.0,2.0,0.0,1.0,1.5,0.0,6.0,0.0,,4236 NORTH DRAKE AVENUE,0.0,1.0,1.0,1.0,3.0,,,"199,220",5,203,MEDIUM 1 STORY,1.0,0.0,,0.0,1.0,,2.0,,1.0,1.0,0.0,1.5,nan,1.0,0.0,0,,2.0,,"103,950",4725,41.95857298,-87.71708508,SF,82.0,0.0,5.0,13144100000000,1.0,,1/1/2020,2019.0,71.0,,7182.0,116.0,,290000.0,2020-02-24 00:00:00,Single Family Residence
140,2.0,4.0,2.0,0.0,1.0,2,0.0,8.0,2.0,,4146 NORTH DRAKE AVENUE,0.0,2.0,2.0,2.0,3.0,,,"239,070",2,211,MULTI: 2 TO 6 UNITS,2.0,0.0,,0.0,1.0,,2.0,,0.0,4.0,0.0,1.5,nan,1.0,0.0,0,,2.0,,"69,300",3150,41.95704652,-87.71703847,MF,82.0,0.0,2.0,13144200000000,1.0,,1/1/2020,2019.0,71.0,,7182.0,120.0,,227500.0,2020-02-06 00:00:00,Apartment house (5+ units)
141,3.0,6.0,2.0,0.0,1.0,1.5,0.0,12.0,3.0,,4126 NORTH DRAKE AVENUE,0.0,1.0,2.0,1.0,2.0,,,"355,200",5,211,MULTI: 2 TO 6 UNITS,2.0,2.0,,0.0,1.0,,2.0,,0.0,1.0,0.0,1.5,nan,1.0,0.0,0,,2.0,,"69,300",3150,41.95649714,-87.71702166,MF,82.0,0.0,2.0,13144200000000,1.0,,1/1/2020,2019.0,71.0,,7182.0,108.0,,430000.0,2020-01-31 00:00:00,Apartment house (5+ units)
142,2.0,5.0,2.0,0.0,1.0,2,0.0,9.0,2.0,,4146 NORTH BERNARD STREET,0.0,3.0,0.0,1.0,3.0,,,"347,910",2,211,MULTI: 2 TO 6 UNITS,2.0,2.0,,0.0,2.0,,2.0,,0.0,2.0,0.0,1.5,nan,1.0,0.0,0,,2.0,,"83,160",3780,41.95703789,-87.71458896,MF,82.0,0.0,5.0,13144200000000,1.0,,1/1/2020,2019.0,71.0,,7182.0,98.0,,380000.0,2020-01-30 00:00:00,Apartment house (5+ units)
143,3.0,4.0,2.0,1.0,1.0,2,1.0,7.0,4.0,,4114 NORTH KEDZIE AVENUE,0.0,1.0,3.0,3.0,3.0,,,"356,440",2,212,MIXED USE,2.0,2.0,,1.0,2.0,,2.0,,0.0,2.0,0.0,1.5,nan,2.0,0.0,0,,2.0,,"68,750",3125,41.95622646,-87.70843973,MF,82.0,1.0,5.0,13144200000000,2.0,,1/1/2020,2019.0,71.0,,7182.0,86.0,,332500.0,2020-02-21 00:00:00,Apartment house (5+ units)
144,2.0,5.0,2.0,0.0,1.0,2,0.0,10.0,2.0,,4026 NORTH KIMBALL AVENUE,0.0,1.0,1.0,2.0,3.0,,,"358,070",2,211,MULTI: 2 TO 6 UNITS,2.0,2.0,,0.0,2.0,,2.0,,1.0,1.0,0.0,1.5,nan,1.0,0.0,0,,2.0,,"69,300",3150,41.95472804,-87.71329395,MF,82.0,0.0,2.0,13144300000000,1.0,,1/1/2020,2019.0,71.0,,7182.0,115.0,,321500.0,2020-02-11 00:00:00,Apartment house (5+ units)
145,1.0,3.0,2.0,0.0,1.0,1,0.0,5.0,0.0,,4466 WEST WILSON AVENUE,0.0,3.0,0.0,2.0,3.0,,,"280,650",1,203,MEDIUM 1 STORY,1.0,2.0,,0.0,1.0,,2.0,,0.0,1.0,0.0,1.5,nan,1.0,0.0,0,,2.0,,"53,210",3942,41.96470849,-87.74116054,SF,71.0,0.0,5.0,13151100000000,1.0,,1/1/2020,2019.0,71.0,,7171.0,95.0,,340000.0,2020-02-13 00:00:00,Single Family Residence
146,1.0,2.0,2.0,0.0,1.0,1,0.0,4.0,0.0,,4624 NORTH KEDVALE AVENUE,0.0,3.0,0.0,2.0,3.0,,,"221,280",1,202,SMALL 1 STORY,1.0,0.0,,0.0,1.0,,2.0,,0.0,1.0,0.0,1.5,nan,1.0,0.0,0,,2.0,,"53,290",3948,41.96477991,-87.73187165,SF,71.0,0.0,5.0,13152200000000,1.0,,1/1/2020,2019.0,71.0,,7171.0,98.0,,210000.0,2020-02-13 00:00:00,Single Family Residence
147,2.0,4.0,2.0,0.0,2.0,2,0.0,8.0,0.0,,4051 NORTH KILBOURN AVENUE,0.0,1.0,3.0,1.0,3.0,,,"599,390",2,206,2 OR MORE STORIES,1.0,0.0,,0.0,2.0,,2.0,,1.0,1.0,0.0,1.5,nan,1.0,0.0,0,,2.0,,"45,670",3150,41.95506618,-87.74021767,SF,101.0,0.0,5.0,13153200000000,1.0,,1/1/2020,2019.0,71.0,,71101.0,122.0,,500000.0,2020-01-31 00:00:00,Single Family Residence
148,1.0,2.0,2.0,0.0,1.0,2,1.0,7.0,0.0,,4165 WEST BERTEAU AVENUE,0.0,3.0,0.0,3.0,3.0,,,"531,610",2,206,2 OR MORE STORIES,1.0,2.0,,1.0,2.0,,1.0,,0.0,2.0,0.0,2,nan,1.0,0.0,0,,2.0,,"138,750",8672,41.95708982,-87.732111,SF,74.0,0.0,5.0,13154200000000,5.0,,1/1/2020,2019.0,71.0,,7174.0,92.0,,500000.0,2020-02-24 00:00:00,Single Family Residence
149,2.0,6.0,2.0,0.0,2.0,2,1.0,12.0,2.0,,4017 NORTH KILDARE AVENUE,0.0,3.0,0.0,1.0,3.0,,,"454,310",2,211,MULTI: 2 TO 6 UNITS,2.0,2.0,,0.0,1.0,,2.0,,1.0,1.0,0.0,1.5,nan,1.0,0.0,0,,2.0,,"113,100",7800,41.95413507,-87.73504713,MF,101.0,0.0,5.0,13154200000000,1.0,,1/1/2020,2019.0,71.0,,71101.0,157.0,,615000.0,2020-02-14 00:00:00,Apartment house (5+ units)
150,1.0,3.0,2.0,0.0,1.0,1.5,1.0,5.0,0.0,,4535 NORTH LAVERGNE AVENUE,0.0,2.0,1.0,1.0,3.0,,,"218,550",5,203,MEDIUM 1 STORY,1.0,0.0,,0.0,2.0,,2.0,,1.0,3.0,0.0,1.5,nan,1.0,0.0,0,,2.0,,"62,930",4340,41.96354479,-87.75215431,SF,101.0,0.0,5.0,13162200000000,1.0,,1/1/2020,2019.0,71.0,,71101.0,98.0,,325000.0,2020-02-06 00:00:00,Single Family Residence
151,1.0,4.0,2.0,0.0,1.0,1.5,0.0,6.0,0.0,,4913 WEST PENSACOLA AVENUE,0.0,1.0,1.0,1.0,3.0,,,"209,500",5,203,MEDIUM 1 STORY,1.0,0.0,,0.0,2.0,,2.0,,0.0,4.0,0.0,0,nan,0.0,0.0,0,,2.0,,"63,430",4375,41.95950913,-87.75051609,SF,101.0,0.0,5.0,13164100000000,1.0,,1/1/2020,2019.0,71.0,,71101.0,112.0,,230000.0,2020-02-04 00:00:00,Single Family Residence
152,1.0,4.0,2.0,0.0,1.0,1.5,0.0,7.0,0.0,,6041 WEST GUNNISON STREET,0.0,1.0,1.0,1.0,3.0,,,"256,160",5,203,MEDIUM 1 STORY,1.0,0.0,,1.0,1.0,,2.0,,0.0,2.0,0.0,1.5,nan,1.0,0.0,0,,2.0,,"45,310",3625,41.96824946,-87.77989861,SF,150.0,1.0,5.0,13171000000000,1.0,,1/1/2020,2019.0,71.0,,71150.0,60.0,,225000.0,2020-02-10 00:00:00,Single Family Residence
153,3.0,6.0,2.0,0.0,1.0,1.5,0.0,15.0,3.0,,5923 WEST EASTWOOD AVENUE,0.0,1.0,2.0,1.0,2.0,,,"311,670",5,211,MULTI: 2 TO 6 UNITS,2.0,2.0,,1.0,2.0,,2.0,,0.0,1.0,0.0,1.5,nan,1.0,0.0,0,,2.0,,"58,000",4000,41.96467297,-87.77564838,MF,90.0,0.0,5.0,13172100000000,1.0,,1/1/2020,2019.0,71.0,,7190.0,95.0,,315000.0,2020-02-05 00:00:00,Apartment house (5+ units)
154,1.0,3.0,2.0,0.0,1.0,1.5,1.0,6.0,0.0,,4415 NORTH MENARD AVENUE,0.0,1.0,1.0,1.0,3.0,,,"251,160",5,203,MEDIUM 1 STORY,1.0,2.0,,0.0,1.0,,2.0,,1.0,2.0,0.0,1.5,nan,1.0,0.0,0,,2.0,,"54,370",3750,41.96093868,-87.77179738,SF,90.0,0.0,5.0,13172300000000,1.0,,1/1/2020,2019.0,71.0,,7190.0,66.0,,305000.0,2020-02-24 00:00:00,Single Family Residence
155,5.0,10.0,2.0,0.0,1.0,2,0.0,25.0,5.0,,4209 NORTH MOBILE AVENUE,0.0,3.0,0.0,1.0,2.0,,,"369,410",2,211,MULTI: 2 TO 6 UNITS,2.0,2.0,,0.0,1.0,,2.0,,1.0,1.0,0.0,0,nan,0.0,0.0,0,,2.0,,"54,170",4334,41.95698307,-87.78395863,MF,150.0,0.0,5.0,13173000000000,1.0,,1/1/2020,2019.0,71.0,,71150.0,98.0,,338000.0,2014-12-08 00:00:00,Apartment house (5+ units)
156,1.0,4.0,2.0,0.0,1.0,1,1.0,6.0,0.0,,3634 NORTH OAK PARK AVENUE,0.0,1.0,3.0,1.0,3.0,,,"178,980",1,203,MEDIUM 1 STORY,1.0,2.0,,0.0,1.0,,2.0,,1.0,2.0,0.0,1.5,nan,1.0,0.0,0,,2.0,,"46,500",3720,41.94650196,-87.79637359,SF,150.0,0.0,5.0,13191400000000,1.0,,1/1/2020,2019.0,71.0,,71150.0,93.0,,258000.0,2020-01-29 00:00:00,Single Family Residence
157,1.0,2.0,2.0,0.0,1.0,1,0.0,4.0,0.0,,6742 WEST BYRON STREET,0.0,3.0,0.0,2.0,3.0,,,"126,870",1,203,MEDIUM 1 STORY,1.0,0.0,,0.0,1.0,,2.0,,0.0,1.0,0.0,1,nan,1.0,0.0,0,,2.0,,"115,150",9212,41.95069139,-87.79542683,SF,150.0,0.0,5.0,13192000000000,1.0,,1/1/2020,2019.0,71.0,,71150.0,95.0,,250000.0,2020-02-11 00:00:00,Single Family Residence
158,1.0,2.0,2.0,0.0,1.0,1,0.0,4.0,0.0,,3508 NORTH NOTTINGHAM AVENUE,0.0,3.0,0.0,1.0,3.0,,,"217,620",1,202,SMALL 1 STORY,1.0,2.0,,0.0,1.0,,2.0,,0.0,2.0,0.0,1,nan,1.0,0.0,0,,2.0,,"55,240",3810,41.9438805,-87.80483994,SF,140.0,0.0,5.0,13193000000000,1.0,,1/1/2020,2019.0,71.0,,71140.0,78.0,,260000.0,2020-01-30 00:00:00,Single Family Residence
159,1.0,2.0,2.0,0.0,1.0,1.5,0.0,4.0,0.0,,7023 WEST ROSCOE STREET,0.0,1.0,1.0,1.0,1.0,,,"197,330",5,202,SMALL 1 STORY,1.0,0.0,,0.0,2.0,,2.0,,1.0,2.0,0.0,1.5,nan,2.0,0.0,0,,2.0,,"54,370",3750,41.94144311,-87.80230702,SF,140.0,0.0,5.0,13193200000000,1.0,,1/1/2020,2019.0,71.0,,71140.0,68.0,,255000.0,2020-02-11 00:00:00,Single Family Residence
160,1.0,3.0,2.0,0.0,1.0,1,0.0,5.0,0.0,,3249 NORTH NEWCASTLE AVENUE,0.0,3.0,0.0,2.0,3.0,,,"200,190",1,203,MEDIUM 1 STORY,1.0,0.0,,0.0,1.0,,2.0,,0.0,1.0,0.0,1,nan,1.0,0.0,0,,2.0,,"71,920",4960,41.93960205,-87.79661487,SF,140.0,0.0,5.0,13193300000000,1.0,,1/1/2020,2019.0,71.0,,71140.0,76.0,,215000.0,2020-02-06 00:00:00,Single Family Residence
161,1.0,3.0,2.0,0.0,1.0,1.5,0.0,7.0,0.0,,3546 NORTH NORMANDY AVENUE,0.0,2.0,1.0,1.0,3.0,,,"233,040",5,204,LARGE 1 STORY,1.0,2.0,,1.0,1.0,,2.0,,1.0,3.0,0.0,1.5,nan,1.0,0.0,0,,2.0,,"46,870",3750,41.94505744,-87.7938765,SF,150.0,0.0,5.0,13194000000000,1.0,,1/1/2020,2019.0,71.0,,71150.0,93.0,,215000.0,2020-02-06 00:00:00,Single Family Residence
162,2.0,4.0,2.0,0.0,1.0,1,0.0,6.0,0.0,,6141 WEST BYRON STREET,0.0,1.0,3.0,1.0,3.0,,,"241,820",1,203,MEDIUM 1 STORY,1.0,2.0,,0.0,2.0,,2.0,,0.0,2.0,0.0,1.5,nan,1.0,0.0,0,,2.0,,"50,320",4026,41.950900399999995,-87.78078501,SF,150.0,0.0,5.0,13201100000000,1.0,,1/1/2020,2019.0,71.0,,71150.0,90.0,,370000.0,2020-01-31 00:00:00,Single Family Residence
163,1.0,4.0,2.0,0.0,1.0,1.5,0.0,6.0,0.0,,6320 WEST WARWICK AVENUE,0.0,1.0,1.0,1.0,3.0,,,"220,840",5,203,MEDIUM 1 STORY,1.0,0.0,,0.0,1.0,,2.0,,1.0,1.0,0.0,1.5,nan,1.0,0.0,0,,2.0,,"46,500",3720,41.94866986,-87.78485553,SF,150.0,0.0,5.0,13201100000000,1.0,,1/1/2020,2019.0,71.0,,71150.0,91.0,,375000.0,2020-02-06 00:00:00,Single Family Residence
164,1.0,3.0,2.0,0.0,1.0,1.5,1.0,5.0,0.0,,5638 WEST BYRON STREET,0.0,1.0,1.0,3.0,3.0,,,"232,750",5,203,MEDIUM 1 STORY,1.0,0.0,,0.0,1.0,,2.0,,0.0,1.0,0.0,0,nan,0.0,0.0,0,,2.0,,"50,730",4059,41.95157507,-87.76849173,SF,150.0,0.0,5.0,13202100000000,1.0,,1/1/2020,2019.0,71.0,,71150.0,105.0,,273000.0,2020-02-05 00:00:00,Single Family Residence
165,1.0,2.0,2.0,0.0,1.0,1,0.0,5.0,0.0,,5714 WEST WARWICK AVENUE,0.0,3.0,0.0,1.0,3.0,,,"196,310",1,203,MEDIUM 1 STORY,1.0,0.0,,0.0,2.0,,2.0,,1.0,2.0,0.0,1,nan,1.0,0.0,0,,2.0,,"48,430",3875,41.94884297,-87.77000856,SF,150.0,0.0,5.0,13202200000000,1.0,,1/1/2020,2019.0,71.0,,71150.0,99.0,,320000.0,2020-02-06 00:00:00,Single Family Residence
166,3.0,4.0,2.0,0.0,1.0,2,0.0,9.0,0.0,,6002 WEST HENDERSON STREET,0.0,3.0,0.0,1.0,3.0,,,"293,120",2,206,2 OR MORE STORIES,1.0,0.0,,1.0,1.0,,2.0,,0.0,2.0,0.0,1,nan,2.0,0.0,1,,2.0,,"39,680",3175,41.94145298,-87.77658361,SF,150.0,0.0,5.0,13203200000000,1.0,,1/1/2020,2019.0,71.0,,71150.0,68.0,,317000.0,2020-02-10 00:00:00,Single Family Residence
167,1.0,3.0,2.0,0.0,1.0,1,0.0,6.0,0.0,,5751 WEST SCHOOL STREET,0.0,1.0,1.0,1.0,3.0,,,"227,850",1,203,MEDIUM 1 STORY,1.0,2.0,,1.0,1.0,,2.0,,1.0,2.0,0.0,0,nan,0.0,0.0,0,,2.0,,"47,250",3780,41.94008099,-87.77101718,SF,150.0,0.0,5.0,13204300000000,1.0,,1/1/2020,2019.0,71.0,,71150.0,94.0,,345000.0,2020-01-29 00:00:00,Single Family Residence
168,2.0,3.0,2.0,0.0,1.0,2,1.0,9.0,0.0,,5528 WEST BYRON STREET,0.0,1.0,3.0,1.0,1.0,,,"348,690",2,205,2 OR MORE STORIES,1.0,2.0,,1.0,2.0,,2.0,,1.0,2.0,0.0,1.5,nan,1.0,0.0,0,,2.0,,"46,120",3690,41.95160923,-87.76570591,SF,150.0,0.0,2.0,13211000000000,1.0,,1/1/2020,2019.0,71.0,,71150.0,94.0,,425000.0,2020-02-14 00:00:00,Single Family Residence
169,2.0,4.0,2.0,0.0,1.0,2,0.0,10.0,2.0,,4858 WEST WARWICK AVENUE,0.0,3.0,0.0,1.0,3.0,,,"279,370",2,211,MULTI: 2 TO 6 UNITS,2.0,0.0,,0.0,1.0,,2.0,,1.0,2.0,0.0,1.5,nan,1.0,0.0,0,,2.0,,"40,300",3224,41.94909471,-87.74957273,MF,150.0,0.0,5.0,13212200000000,2.0,,1/1/2020,2019.0,71.0,,71150.0,105.0,,345000.0,2020-02-05 00:00:00,Apartment house (5+ units)
170,1.0,3.0,2.0,0.0,1.0,1,0.0,5.0,0.0,,4906 WEST WAVELAND AVENUE,0.0,1.0,3.0,1.0,3.0,,,"231,120",1,203,MEDIUM 1 STORY,1.0,0.0,,0.0,2.0,,2.0,,1.0,2.0,0.0,1.5,nan,1.0,0.0,0,,2.0,,"46,500",3720,41.94818112,-87.75009431,SF,150.0,0.0,5.0,13212200000000,1.0,,1/1/2020,2019.0,71.0,,71150.0,102.0,,255000.0,2020-02-11 00:00:00,Single Family Residence
171,6.0,12.0,2.0,0.0,1.0,2,0.0,24.0,6.0,,3535 NORTH LINDER AVENUE,0.0,1.0,1.0,1.0,2.0,,,"661,380",2,211,MULTI: 2 TO 6 UNITS,2.0,2.0,,0.0,2.0,,2.0,,1.0,2.0,0.0,0,nan,2.0,0.0,1,,2.0,,"67,810",4677,41.94526116,-87.76408506,MF,171.0,0.0,5.0,13213000000000,1.0,,1/1/2020,2019.0,71.0,,71171.0,89.0,,525000.0,2020-01-29 00:00:00,Apartment house (5+ units)
172,2.0,3.0,2.0,0.0,1.0,1.5,0.0,7.0,0.0,,5324 WEST EDDY STREET,0.0,1.0,1.0,1.0,3.0,,,"229,300",5,203,MEDIUM 1 STORY,1.0,2.0,,0.0,1.0,,2.0,,0.0,1.0,0.0,2.5,nan,1.0,0.0,0,,2.0,,"67,060",4625,41.94530852,-87.76024709,SF,171.0,0.0,5.0,13213000000000,1.0,,1/1/2020,2019.0,71.0,,71171.0,106.0,,300000.0,2020-01-29 00:00:00,Single Family Residence
173,1.0,3.0,2.0,0.0,1.0,1.5,0.0,7.0,0.0,,5228 WEST SCHOOL STREET,0.0,1.0,1.0,1.0,3.0,,,"300,840",5,204,LARGE 1 STORY,1.0,2.0,,0.0,1.0,,2.0,,1.0,2.0,0.0,0,nan,0.0,0.0,0,,2.0,,"54,370",3750,41.94077262,-87.75793115,SF,171.0,0.0,5.0,13213200000000,1.0,,1/1/2020,2019.0,71.0,,71171.0,91.0,,450000.0,2020-02-21 00:00:00,Single Family Residence
174,1.0,3.0,2.0,0.0,1.0,1,0.0,6.0,0.0,,4937 WEST NEWPORT AVENUE,0.0,3.0,0.0,1.0,3.0,,,"186,660",1,203,MEDIUM 1 STORY,1.0,2.0,,1.0,1.0,,2.0,,0.0,2.0,0.0,1.5,nan,1.0,0.0,0,,2.0,,"58,000",4000,41.94307481,-87.75095263,SF,171.0,0.0,5.0,13214100000000,1.0,,1/1/2020,2019.0,71.0,,71171.0,96.0,,540000.0,2020-02-11 00:00:00,Single Family Residence
175,2.0,4.0,2.0,0.0,1.0,2,0.0,8.0,0.0,,4846 WEST MELROSE STREET,0.0,2.0,1.0,1.0,1.0,,,"303,110",2,205,2 OR MORE STORIES,1.0,2.0,,0.0,1.0,,2.0,,0.0,1.0,0.0,0,nan,0.0,0.0,0,,2.0,,"45,310",3125,41.93997672,-87.74883788,SF,171.0,0.0,2.0,13214200000000,1.0,,1/1/2020,2019.0,71.0,,71171.0,111.0,,256000.0,2020-02-05 00:00:00,Single Family Residence
176,2.0,4.0,2.0,0.0,1.0,2,1.0,8.0,2.0,,4730 WEST GRACE STREET,0.0,3.0,0.0,1.0,3.0,,,"268,840",2,211,MULTI: 2 TO 6 UNITS,2.0,2.0,,0.0,1.0,,2.0,,0.0,2.0,0.0,1.5,nan,1.0,0.0,0,,2.0,,"66,870",4612,41.95004866,-87.74594021,MF,120.0,0.0,5.0,13221100000000,1.0,,1/1/2020,2019.0,71.0,,71120.0,104.0,,292500.0,2018-03-13 00:00:00,Apartment house (5+ units)
177,2.0,4.0,2.0,0.0,1.0,2,0.0,8.0,0.0,,3715 NORTH LOWELL AVENUE,0.0,1.0,3.0,1.0,3.0,,,"679,490",2,206,2 OR MORE STORIES,1.0,2.0,,0.0,1.0,,2.0,,0.0,1.0,0.0,1,nan,1.0,0.0,0,,2.0,,"82,940",5184,41.9485666,-87.73626779,SF,74.0,0.0,5.0,13222100000000,1.0,,1/1/2020,2019.0,71.0,,7174.0,110.0,,695000.0,2020-01-30 00:00:00,Single Family Residence
178,2.0,6.0,2.0,0.0,1.0,2,1.0,12.0,2.0,,3416 NORTH KEATING AVENUE,0.0,3.0,0.0,1.0,3.0,,,"247,530",2,211,MULTI: 2 TO 6 UNITS,2.0,2.0,,0.0,1.0,,2.0,,1.0,2.0,0.0,3.5,nan,1.0,0.0,0,,2.0,,"130,500",9000,41.94307956,-87.74577014,MF,120.0,0.0,5.0,13223100000000,2.0,,1/1/2020,2019.0,71.0,,71120.0,110.0,,637500.0,2020-02-24 00:00:00,Apartment house (5+ units)
179,2.0,2.0,2.0,0.0,1.0,3,0.0,6.0,0.0,,4529 WEST SCHOOL STREET,0.0,3.0,0.0,2.0,3.0,,,"272,690",3,295,TOWNHOUSE,1.0,2.0,,1.0,1.0,,2.0,,0.0,2.0,0.0,1.5,nan,2.0,1.0,1,,2.0,,"17,920",1236,41.94045467,-87.74076895,SF,120.0,0.0,5.0,13223200000000,2.0,,1/1/2020,2019.0,71.0,,71120.0,13.0,,362000.0,2020-02-13 00:00:00,Townhouse
180,1.0,2.0,2.0,0.0,1.0,1,0.0,6.0,0.0,,4207 WEST MELROSE STREET,0.0,1.0,3.0,1.0,3.0,,,"178,890",1,202,SMALL 1 STORY,1.0,2.0,,0.0,1.0,,2.0,,1.0,2.0,0.0,1.5,nan,1.0,0.0,0,,2.0,,"56,000",3500,41.93967293,-87.73243464,SF,70.0,0.0,5.0,13224400000000,1.0,,1/1/2020,2019.0,71.0,,7170.0,104.0,,268000.0,2020-02-03 00:00:00,Single Family Residence
181,1.0,3.0,2.0,0.0,1.0,2,0.0,6.0,0.0,,3749 NORTH MONTICELLO AVENUE,0.0,2.0,3.0,1.0,3.0,,,"418,920",2,205,2 OR MORE STORIES,1.0,2.0,,0.0,1.0,,2.0,,0.0,1.0,0.0,0,nan,0.0,0.0,0,,2.0,,"50,000",3125,41.94980815,-87.71857478,SF,70.0,0.0,5.0,13231200000000,1.0,,1/1/2020,2019.0,71.0,,7170.0,115.0,,425000.0,2020-01-29 00:00:00,Single Family Residence
182,3.0,5.0,2.0,0.0,1.0,2,0.0,14.0,3.0,,3828 NORTH CHRISTIANA AVENUE,0.0,1.0,2.0,4.0,3.0,,,"431,400",2,211,MULTI: 2 TO 6 UNITS,2.0,2.0,,1.0,2.0,,2.0,,1.0,1.0,0.0,1.5,nan,1.0,0.0,0,,2.0,,"49,600",3100,41.95109886,-87.71195648,MF,70.0,0.0,5.0,13232100000000,1.0,,1/1/2020,2019.0,71.0,,7170.0,110.0,,462000.0,2020-02-21 00:00:00,Apartment house (5+ units)
183,3.0,4.0,2.0,0.0,2.0,2,1.0,9.0,0.0,,3711 NORTH CHRISTIANA AVENUE,0.0,3.0,0.0,1.0,1.0,,,"2,210",2,278,2 OR MORE STORIES,1.0,2.0,,1.0,1.0,,2.0,,0.0,1.0,0.0,1.5,nan,1.0,0.0,0,,2.0,,"56,440",3528,41.948803000000005,-87.71120127,SF,70.0,1.0,5.0,13232200000000,1.0,,1/1/2020,2019.0,71.0,,7170.0,1.0,,820000.0,2020-02-24 00:00:00,"Parking Garage, Parking Structure"
184,3.0,6.0,2.0,0.0,1.0,2,0.0,12.0,3.0,,3330 NORTH AVERS AVENUE,0.0,3.0,0.0,1.0,2.0,,,"393,180",2,211,MULTI: 2 TO 6 UNITS,2.0,2.0,,0.0,1.0,,2.0,,1.0,2.0,0.0,1.5,nan,1.0,0.0,0,,2.0,,"60,000",3750,41.94190978,-87.72395036,MF,70.0,0.0,2.0,13233200000000,2.0,,1/1/2020,2019.0,71.0,,7170.0,96.0,,535000.0,2020-02-21 00:00:00,Apartment house (5+ units)
185,2.0,4.0,2.0,0.0,1.0,2,0.0,10.0,2.0,,3319 NORTH AVERS AVENUE,0.0,3.0,0.0,1.0,3.0,,,"259,030",2,211,MULTI: 2 TO 6 UNITS,2.0,0.0,,0.0,2.0,,2.0,,1.0,2.0,0.0,1.5,nan,1.0,0.0,0,,2.0,,"60,000",3750,41.94158792,-87.72323804,MF,70.0,0.0,5.0,13233200000000,2.0,,1/1/2020,2019.0,71.0,,7170.0,101.0,,485000.0,2020-01-29 00:00:00,Apartment house (5+ units)
186,3.0,9.0,2.0,0.0,1.0,3,0.0,18.0,3.0,,3223 NORTH HAMLIN AVENUE,0.0,3.0,0.0,1.0,3.0,,,"389,620",3,211,MULTI: 2 TO 6 UNITS,2.0,0.0,,0.0,2.0,,2.0,,0.0,2.0,0.0,1.5,nan,1.0,0.0,0,,2.0,,"60,000",3750,41.9398625,-87.7219648,MF,70.0,0.0,5.0,13233300000000,2.0,,1/1/2020,2019.0,71.0,,7170.0,110.0,,965000.0,2020-02-21 00:00:00,Apartment house (5+ units)
187,2.0,5.0,2.0,0.0,1.0,2,1.0,10.0,2.0,,3244 NORTH RIDGEWAY AVENUE,0.0,1.0,3.0,1.0,1.0,,,"275,020",2,211,MULTI: 2 TO 6 UNITS,2.0,2.0,,0.0,2.0,,2.0,,1.0,1.0,0.0,1.5,nan,1.0,0.0,0,,2.0,,"60,000",3750,41.94052689,-87.72146371,MF,70.0,0.0,5.0,13233300000000,1.0,,1/1/2020,2019.0,71.0,,7170.0,115.0,,300000.0,2020-02-21 00:00:00,Apartment house (5+ units)
188,2.0,2.0,2.0,0.0,1.0,2,0.0,7.0,2.0,,3925 NORTH FRANCISCO AVENUE,0.0,3.0,0.0,3.0,2.0,,,"223,980",2,211,MULTI: 2 TO 6 UNITS,2.0,0.0,,0.0,1.0,,2.0,,0.0,1.0,0.0,1.5,nan,1.0,0.0,0,,2.0,,"68,750",3125,41.95293109,-87.70034559,MF,82.0,0.0,5.0,13241100000000,1.0,,1/1/2020,2019.0,71.0,,7182.0,112.0,,340000.0,2020-02-05 00:00:00,Apartment house (5+ units)
189,2.0,4.0,2.0,0.0,1.0,2,0.0,6.0,2.0,,3616 NORTH TROY STREET,0.0,3.0,0.0,1.0,3.0,,,"307,450",2,211,MULTI: 2 TO 6 UNITS,2.0,2.0,,0.0,1.0,,2.0,,0.0,2.0,0.0,1,nan,1.0,0.0,0,,2.0,,"82,500",3750,41.94721065,-87.70696338,MF,82.0,0.0,5.0,13241200000000,1.0,,1/1/2020,2019.0,71.0,,7182.0,96.0,,300000.0,2020-01-29 00:00:00,Apartment house (5+ units)
190,2.0,4.0,2.0,0.0,2.0,2,0.0,8.0,2.0,,3620 NORTH ALBANY AVENUE,0.0,3.0,0.0,1.0,3.0,,,"269,990",2,211,MULTI: 2 TO 6 UNITS,2.0,2.0,,0.0,1.0,,2.0,,1.0,2.0,0.0,0,nan,0.0,0.0,0,,2.0,,"68,750",3125,41.94731991,-87.70574256,MF,82.0,0.0,5.0,13241300000000,1.0,,1/1/2020,2019.0,71.0,,7182.0,110.0,,740000.0,2020-02-05 00:00:00,Apartment house (5+ units)
191,3.0,4.0,2.0,0.0,2.0,2,1.0,9.0,0.0,,3619 NORTH CAMPBELL AVENUE,0.0,3.0,0.0,1.0,1.0,,,"952,480",2,278,2 OR MORE STORIES,1.0,2.0,,1.0,1.0,,2.0,,0.0,1.0,0.0,1.5,nan,1.0,0.0,0,,2.0,,"81,840",3720,41.94732822,-87.69036737,SF,82.0,0.0,5.0,13242100000000,1.0,,1/1/2020,2019.0,71.0,,7182.0,7.0,,803000.0,2020-01-30 00:00:00,Single Family Residence
192,3.0,4.0,2.0,0.0,2.0,2,1.0,13.0,0.0,,2523 WEST PATTERSON AVENUE,0.0,3.0,0.0,1.0,1.0,,,"1,021,410",2,278,2 OR MORE STORIES,1.0,2.0,,1.0,1.0,,2.0,,0.0,3.0,0.0,1.5,nan,1.0,0.0,0,,2.0,,"86,590",3936,41.94734733,-87.69168851,SF,82.0,0.0,5.0,13242100000000,1.0,,1/1/2020,2019.0,71.0,,7182.0,12.0,,1010000.0,2020-02-21 00:00:00,Single Family Residence
193,3.0,4.0,2.0,0.0,1.0,2,1.0,13.0,0.0,,2501 WEST PATTERSON AVENUE,0.0,3.0,0.0,1.0,1.0,,,"1,015,970",2,278,2 OR MORE STORIES,1.0,2.0,,1.0,1.0,,2.0,,0.0,3.0,0.0,0,nan,0.0,0.0,0,,2.0,,"104,230",4738,41.94734765,-87.69087923,SF,82.0,0.0,5.0,13242100000000,1.0,,1/1/2020,2019.0,71.0,,7182.0,12.0,,1100000.0,2020-02-03 00:00:00,Single Family Residence
194,2.0,3.0,2.0,0.0,1.0,2,0.0,6.0,2.0,,3409 NORTH ALBANY AVENUE,0.0,3.0,0.0,2.0,3.0,,,"265,360",2,211,MULTI: 2 TO 6 UNITS,2.0,0.0,,0.0,1.0,,2.0,,0.0,1.0,0.0,1,nan,1.0,0.0,0,,2.0,,"69,300",3150,41.94308102,-87.704921,MF,82.0,0.0,5.0,13243100000000,1.0,,1/1/2020,2019.0,71.0,,7182.0,115.0,,372500.0,2020-01-30 00:00:00,Apartment house (5+ units)
195,3.0,3.0,2.0,0.0,2.0,1.5,0.0,8.0,0.0,,2729 WEST MELROSE STREET,0.0,1.0,1.0,1.0,1.0,,,"235,820",5,203,MEDIUM 1 STORY,1.0,2.0,,1.0,1.0,,2.0,,0.0,1.0,0.0,1.5,nan,1.0,0.0,0,,2.0,,"61,600",2800,41.94001637,-87.6964211,SF,82.0,0.0,5.0,13244100000000,1.0,,1/1/2020,2019.0,71.0,,7182.0,115.0,,520000.0,2020-01-28 00:00:00,Single Family Residence
196,2.0,6.0,2.0,0.0,1.0,2,0.0,12.0,2.0,,2620 NORTH WHIPPLE STREET,0.0,3.0,0.0,1.0,3.0,,,"515,320",2,211,MULTI: 2 TO 6 UNITS,2.0,0.0,,0.0,2.0,,2.0,,0.0,2.0,0.0,1.5,nan,1.0,0.0,0,,2.0,,"89,060",3125,41.92934461,-87.70403134,MF,151.0,0.0,5.0,13253100000000,1.0,,1/1/2020,2019.0,77.0,,77151.0,123.0,,17500000.0,2020-02-07 00:00:00,"Community: Shopping Center, Mini-Mall"
197,4.0,7.0,3.0,0.0,1.0,3,0.0,22.0,5.0,,3044 WEST LOGAN BOULEVARD,0.0,3.0,0.0,1.0,2.0,,,"565,730",3,211,MULTI: 2 TO 6 UNITS,2.0,2.0,,1.0,1.0,,2.0,,0.0,2.0,0.0,0,nan,0.0,0.0,0,,2.0,,"120,550",4230,41.92893527,-87.70420222,MF,151.0,0.0,5.0,13253100000000,2.0,,1/1/2020,2019.0,77.0,,77151.0,112.0,,948000.0,2020-02-07 00:00:00,Apartment house (5+ units)
198,2.0,5.0,2.0,0.0,1.0,2,0.0,9.0,2.0,,2947 WEST LOGAN BOULEVARD,0.0,3.0,0.0,1.0,3.0,,,"503,220",2,211,MULTI: 2 TO 6 UNITS,2.0,0.0,,0.0,2.0,,2.0,,1.0,2.0,0.0,1.5,nan,1.0,0.0,0,,2.0,,"98,320",3450,41.92791573,-87.7017915,MF,151.0,0.0,5.0,13253200000000,1.0,,1/1/2020,2019.0,77.0,,77151.0,117.0,,895000.0,2020-02-07 00:00:00,Apartment house (5+ units)
199,3.0,4.0,2.0,0.0,1.0,2,0.0,9.0,0.0,,2642 NORTH FAIRFIELD AVENUE,0.0,3.0,0.0,1.0,1.0,,,"606,160",2,206,2 OR MORE STORIES,1.0,2.0,,1.0,1.0,,2.0,,1.0,2.0,0.0,0,nan,0.0,0.0,0,,2.0,,"89,770",3150,41.93001778,-87.69672219,SF,150.0,0.0,5.0,13254100000000,2.0,,1/1/2020,2019.0,77.0,,77150.0,123.0,,945000.0,2020-02-13 00:00:00,Single Family Residence
200,2.0,6.0,2.0,0.0,1.0,2,0.0,12.0,2.0,,2641 WEST ALTGELD STREET,0.0,3.0,0.0,1.0,3.0,,,"413,490",2,211,MULTI: 2 TO 6 UNITS,2.0,0.0,,0.0,2.0,,2.0,,1.0,2.0,0.0,0,nan,0.0,0.0,0,,2.0,,"89,880",3154,41.92643094,-87.69422042,MF,150.0,0.0,5.0,13254300000000,2.0,,1/1/2020,2019.0,77.0,,77150.0,117.0,,385000.0,2020-02-13 00:00:00,Apartment house (5+ units)
201,1.0,3.0,2.0,0.0,1.0,1,0.0,5.0,0.0,,2456 NORTH CAMPBELL AVENUE,0.0,1.0,3.0,1.0,3.0,,,"322,080",1,203,MEDIUM 1 STORY,1.0,2.0,,0.0,2.0,,2.0,,0.0,2.0,0.0,1.5,nan,2.0,0.0,0,,2.0,,"89,770",3150,41.92656564,-87.69050035,SF,150.0,0.0,5.0,13254300000000,1.0,,1/1/2020,2019.0,77.0,,77150.0,120.0,,410000.0,2020-02-04 00:00:00,Single Family Residence
202,3.0,6.0,2.0,0.0,1.0,2,0.0,14.0,3.0,,3124 NORTH DAVLIN COURT,0.0,3.0,0.0,1.0,1.0,,,"275,310",2,211,MULTI: 2 TO 6 UNITS,2.0,2.0,,0.0,2.0,,2.0,,1.0,2.0,0.0,1.5,nan,2.0,0.0,0,,2.0,,"68,160",4260,41.93797491,-87.72398264,MF,70.0,0.0,5.0,13261000000000,1.0,,1/1/2020,2019.0,71.0,,7170.0,95.0,,413000.0,2020-02-20 00:00:00,Apartment house (5+ units)
203,4.0,8.0,2.0,0.0,1.0,3,0.0,19.0,4.0,,3041 NORTH MONTICELLO AVENUE,0.0,1.0,3.0,1.0,2.0,,,"494,740",3,211,MULTI: 2 TO 6 UNITS,2.0,2.0,,0.0,2.0,,2.0,,0.0,2.0,0.0,2.5,nan,1.0,0.0,0,,2.0,,"48,400",3025,41.93677767,-87.71816597,MF,70.0,0.0,5.0,13261100000000,2.0,,1/1/2020,2019.0,71.0,,7170.0,110.0,,750000.0,2020-02-06 00:00:00,Apartment house (5+ units)
204,4.0,4.0,2.0,1.0,1.0,2,0.0,7.0,4.0,,3057 NORTH KIMBALL AVENUE,0.0,1.0,3.0,3.0,3.0,,,"352,870",2,212,MIXED USE,2.0,2.0,,0.0,1.0,,2.0,,0.0,2.0,0.0,2,nan,1.0,0.0,0,,2.0,,"47,230",2952,41.93734428,-87.71208017,MF,70.0,1.0,5.0,13262100000000,2.0,,1/1/2020,2019.0,71.0,,7170.0,102.0,,575000.0,2020-02-06 00:00:00,Apartment house (5+ units)
205,1.0,3.0,2.0,0.0,1.0,1.5,1.0,6.0,0.0,,3028 NORTH GRESHAM AVENUE,0.0,1.0,1.0,4.0,3.0,,,"333,850",5,203,MEDIUM 1 STORY,1.0,2.0,,0.0,1.0,,2.0,,0.0,1.0,0.0,1.5,nan,1.0,0.0,0,,2.0,,"50,000",3125,41.93671407,-87.71420519,SF,70.0,0.0,5.0,13262100000000,1.0,,1/1/2020,2019.0,71.0,,7170.0,110.0,,435000.0,2020-02-07 00:00:00,Single Family Residence
206,3.0,4.0,2.0,1.0,1.0,2,1.0,7.0,4.0,,2825 NORTH MILWAUKEE AVENUE,0.0,1.0,3.0,3.0,3.0,,,"266,970",2,212,MIXED USE,2.0,2.0,,0.0,2.0,,2.0,,0.0,1.0,0.0,0,nan,0.0,0.0,0,,2.0,,"50,000",3125,41.93267124,-87.71275345,MF,70.0,1.0,5.0,13262200000000,2.0,,1/1/2020,2019.0,71.0,,7170.0,117.0,,525000.0,2020-02-14 00:00:00,Apartment house (5+ units)
207,2.0,3.0,2.0,0.0,1.0,2,0.0,6.0,2.0,,2711 NORTH HAMLIN AVENUE,0.0,3.0,0.0,2.0,3.0,,,"259,200",2,211,MULTI: 2 TO 6 UNITS,2.0,2.0,,0.0,1.0,,2.0,,0.0,1.0,0.0,0,nan,0.0,0.0,0,,2.0,,"52,000",3250,41.9304556,-87.72169193,MF,70.0,0.0,5.0,13263000000000,1.0,,1/1/2020,2019.0,71.0,,7170.0,110.0,,350000.0,2020-02-11 00:00:00,Apartment house (5+ units)
208,3.0,9.0,2.0,0.0,1.0,2,0.0,18.0,3.0,,3035 NORTH KEATING AVENUE,0.0,3.0,0.0,1.0,2.0,,,"315,340",2,211,MULTI: 2 TO 6 UNITS,2.0,2.0,,0.0,2.0,,2.0,,1.0,2.0,0.0,1.5,nan,2.0,0.0,0,,2.0,,"52,630",3630,41.93623878,-87.7451693,MF,120.0,0.0,5.0,13271100000000,2.0,,1/1/2020,2019.0,71.0,,71120.0,98.0,,370000.0,2020-02-24 00:00:00,Apartment house (5+ units)
209,3.0,6.0,2.0,0.0,1.0,2,0.0,12.0,2.0,,2957 NORTH KEATING AVENUE,0.0,3.0,0.0,1.0,3.0,,,"252,470",2,211,MULTI: 2 TO 6 UNITS,2.0,2.0,,0.0,1.0,,2.0,,0.0,2.0,0.0,1,nan,1.0,0.0,0,,2.0,,"52,630",3630,41.93499155,-87.74511977,MF,120.0,0.0,5.0,13271200000000,1.0,,1/1/2020,2019.0,71.0,,71120.0,96.0,,60000.0,1988-06-21 00:00:00,Apartment house (5+ units)
210,1.0,3.0,2.0,0.0,1.0,1,0.0,4.0,0.0,,2916 NORTH KILPATRICK AVENUE,0.0,3.0,0.0,2.0,3.0,,,"153,990",1,203,MEDIUM 1 STORY,1.0,0.0,,0.0,1.0,,2.0,,0.0,1.0,0.0,1,nan,1.0,0.0,0,,2.0,,"52,630",3630,41.93392832,-87.74457761,SF,120.0,0.0,5.0,13271200000000,1.0,,1/1/2020,2019.0,71.0,,71120.0,96.0,,200000.0,2020-01-30 00:00:00,Single Family Residence
211,3.0,5.0,2.0,0.0,1.0,2,0.0,15.0,3.0,,4518 WEST MONTANA STREET,0.0,3.0,0.0,2.0,3.0,,,"288,250",2,211,MULTI: 2 TO 6 UNITS,2.0,0.0,,0.0,1.0,,2.0,,0.0,1.0,0.0,1.5,nan,1.0,0.0,0,,2.0,,"87,000",6000,41.92557715,-87.73992905,MF,120.0,0.0,5.0,13273200000000,1.0,,1/1/2020,2019.0,71.0,,71120.0,96.0,,475000.0,2020-02-06 00:00:00,Apartment house (5+ units)
212,2.0,2.0,2.0,0.0,1.0,1.5,0.0,6.0,2.0,,2507 NORTH TRIPP AVENUE,0.0,1.0,2.0,1.0,1.0,,,"143,800",5,211,MULTI: 2 TO 6 UNITS,2.0,0.0,,0.0,2.0,,2.0,,1.0,2.0,0.0,1.5,nan,2.0,0.0,0,,2.0,,"45,310",3125,41.92654575,-87.73260352,MF,120.0,0.0,5.0,13274100000000,1.0,,1/1/2020,2019.0,71.0,,71120.0,110.0,,300000.0,2020-02-24 00:00:00,Apartment house (5+ units)
213,1.0,3.0,2.0,0.0,1.0,1,0.0,6.0,0.0,,2444 NORTH KEELER AVENUE,0.0,3.0,0.0,1.0,1.0,,,"177,480",1,203,MEDIUM 1 STORY,1.0,0.0,,0.0,1.0,,2.0,,1.0,3.0,0.0,1.5,nan,1.0,0.0,0,,2.0,,"53,460",3687,41.92579779,-87.73206007,SF,120.0,0.0,2.0,13274200000000,1.0,,1/1/2020,2019.0,71.0,,71120.0,82.0,,130000.0,2020-02-10 00:00:00,Single Family Residence
214,1.0,3.0,2.0,0.0,1.0,1.5,1.0,6.0,0.0,,3128 NORTH LINDER AVENUE,0.0,2.0,1.0,1.0,3.0,,,"181,020",5,203,MEDIUM 1 STORY,1.0,2.0,,0.0,1.0,,2.0,,1.0,2.0,0.0,1.5,nan,1.0,0.0,0,,2.0,,"47,250",3780,41.9376705,-87.76436655,SF,260.0,0.0,5.0,13281000000000,1.0,,1/1/2020,2019.0,71.0,,71260.0,92.0,,280000.0,2020-02-19 00:00:00,Single Family Residence
215,1.0,3.0,2.0,0.0,1.0,1.5,1.0,6.0,0.0,,5335 WEST BARRY AVENUE,0.0,1.0,1.0,1.0,1.0,,,"206,350",5,203,MEDIUM 1 STORY,1.0,0.0,,0.0,1.0,,2.0,,1.0,1.0,0.0,1.5,nan,1.0,0.0,0,,2.0,,"46,870",3750,41.93656414,-87.76045193,SF,260.0,0.0,5.0,13281100000000,1.0,,1/1/2020,2019.0,71.0,,71260.0,96.0,,285000.0,2020-02-13 00:00:00,Single Family Residence
216,2.0,3.0,2.0,0.0,1.0,1.5,1.0,6.0,0.0,,5329 WEST NELSON STREET,0.0,2.0,1.0,1.0,1.0,,,"205,440",5,203,MEDIUM 1 STORY,1.0,2.0,,1.0,1.0,,2.0,,1.0,2.0,0.0,1.5,nan,2.0,0.0,0,,2.0,,"46,870",3750,41.93565524,-87.76019822,SF,260.0,0.0,5.0,13281100000000,1.0,,1/1/2020,2019.0,71.0,,71260.0,92.0,,315000.0,2020-02-21 00:00:00,Single Family Residence
217,1.0,2.0,2.0,0.0,1.0,1,0.0,5.0,0.0,,5026 WEST FLETCHER STREET,0.0,3.0,0.0,1.0,3.0,,,"345,830",1,203,MEDIUM 1 STORY,1.0,2.0,,0.0,2.0,,2.0,,1.0,2.0,0.0,1.5,nan,1.0,0.0,0,,2.0,,"54,680",4375,41.93809946,-87.75286248,SF,260.0,0.0,5.0,13282000000000,1.0,,1/1/2020,2019.0,71.0,,71260.0,96.0,,430000.0,2020-02-24 00:00:00,Single Family Residence
218,2.0,4.0,2.0,0.0,1.0,2,0.0,10.0,2.0,,5010 WEST OAKDALE AVENUE,0.0,3.0,0.0,1.0,1.0,,,"236,750",2,211,MULTI: 2 TO 6 UNITS,2.0,2.0,,0.0,2.0,,2.0,,0.0,2.0,0.0,1,nan,1.0,0.0,0,,2.0,,"46,870",3750,41.93446112,-87.75213314,MF,260.0,0.0,5.0,13282200000000,1.0,,1/1/2020,2019.0,71.0,,71260.0,96.0,,422500.0,2020-02-05 00:00:00,Apartment house (5+ units)
219,3.0,10.0,2.0,0.0,1.0,1.5,0.0,17.0,3.0,,4819 WEST GEORGE STREET,0.0,1.0,1.0,1.0,2.0,,,"248,290",5,211,MULTI: 2 TO 6 UNITS,2.0,2.0,,0.0,1.0,,2.0,,0.0,3.0,0.0,1.5,nan,1.0,0.0,0,,2.0,,"46,870",3750,41.93308481,-87.7475122,MF,260.0,0.0,5.0,13282300000000,1.0,,1/1/2020,2019.0,71.0,,71260.0,96.0,,200000.0,2020-02-14 00:00:00,Apartment house (5+ units)
220,2.0,4.0,2.0,0.0,1.0,2,0.0,8.0,0.0,,5218 WEST PARKER AVENUE,0.0,3.0,0.0,1.0,3.0,,,"299,500",2,206,2 OR MORE STORIES,1.0,2.0,,0.0,2.0,,2.0,,0.0,2.0,0.0,1.5,nan,1.0,0.0,0,,2.0,,"46,500",3720,41.93074489,-87.75719978,SF,260.0,0.0,5.0,13283000000000,2.0,,1/1/2020,2019.0,71.0,,71260.0,88.0,,425000.0,2020-01-29 00:00:00,Single Family Residence
221,1.0,2.0,2.0,0.0,1.0,1,0.0,4.0,0.0,,2446 NORTH LOTUS AVENUE,0.0,1.0,3.0,1.0,3.0,,,"140,450",1,202,SMALL 1 STORY,1.0,0.0,,0.0,2.0,,2.0,,0.0,1.0,0.0,1.5,nan,1.0,0.0,0,,2.0,,"38,100",3048,41.92542354,-87.76270217,SF,260.0,0.0,5.0,13283300000000,1.0,,1/1/2020,2019.0,71.0,,71260.0,107.0,,277000.0,2020-02-24 00:00:00,Single Family Residence
222,4.0,4.0,2.0,1.0,1.0,2,0.0,7.0,4.0,,5141 WEST DIVERSEY AVENUE,0.0,1.0,3.0,3.0,3.0,,,"276,690",2,212,MIXED USE,2.0,2.0,,0.0,2.0,,2.0,,0.0,2.0,0.0,0,nan,0.0,0.0,0,,2.0,,"38,750",3100,41.93115087,-87.75559387,MF,260.0,0.0,5.0,13284000000000,2.0,,1/1/2020,2019.0,71.0,,71260.0,88.0,,400000.0,2020-02-11 00:00:00,Apartment house (5+ units)
223,1.0,3.0,2.0,0.0,1.0,1,0.0,6.0,0.0,,6043 WEST FLETCHER STREET,0.0,3.0,0.0,1.0,3.0,,,"213,360",1,203,MEDIUM 1 STORY,1.0,0.0,,0.0,2.0,,2.0,,0.0,2.0,0.0,1.5,nan,1.0,0.0,0,,2.0,,"47,250",3780,41.93724879,-87.77786183,SF,200.0,0.0,5.0,13291100000000,1.0,,1/1/2020,2019.0,71.0,,71200.0,90.0,,264000.0,2020-02-06 00:00:00,Single Family Residence
224,1.0,2.0,2.0,0.0,1.0,1,0.0,3.0,0.0,,2820 NORTH MENARD AVENUE,0.0,1.0,3.0,1.0,3.0,,,"138,970",1,202,SMALL 1 STORY,1.0,2.0,,0.0,1.0,,2.0,,0.0,1.0,0.0,1,nan,1.0,0.0,0,,2.0,,"46,500",3720,41.93188872,-87.77147903,SF,200.0,0.0,5.0,13292300000000,1.0,,1/1/2020,2019.0,71.0,,71200.0,95.0,,218000.0,2020-01-30 00:00:00,Single Family Residence
225,2.0,3.0,2.0,0.0,1.0,2,2.0,6.0,0.0,,2723 NORTH MAJOR AVENUE,0.0,3.0,0.0,1.0,1.0,,,"224,030",2,205,2 OR MORE STORIES,1.0,2.0,,1.0,1.0,,2.0,,0.0,2.0,0.0,1.5,nan,1.0,0.0,0,,2.0,,"40,920",3720,41.93012848,-87.76828821,SF,250.0,0.0,5.0,13294100000000,1.0,,1/1/2020,2019.0,71.0,,71250.0,94.0,,240000.0,2020-02-05 00:00:00,Single Family Residence
226,1.0,4.0,2.0,0.0,1.0,1.5,1.0,6.0,0.0,,2842 NORTH NEVA AVENUE,0.0,1.0,1.0,1.0,3.0,,,"230,600",5,203,MEDIUM 1 STORY,1.0,0.0,,0.0,1.0,,2.0,,0.0,2.0,0.0,1.5,nan,1.0,0.0,0,,2.0,,"51,560",4125,41.93201683,-87.80567044,SF,200.0,0.0,5.0,13301300000000,1.0,,1/1/2020,2019.0,71.0,,71200.0,79.0,,295000.0,2020-01-28 00:00:00,Single Family Residence
227,2.0,3.0,2.0,0.0,1.0,1,0.0,6.0,0.0,,2935 NORTH NEENAH AVENUE,0.0,1.0,3.0,1.0,3.0,,,"222,670",1,203,MEDIUM 1 STORY,1.0,0.0,,0.0,1.0,,2.0,,1.0,2.0,0.0,2.5,nan,1.0,0.0,0,,2.0,,"46,870",3750,41.93382434,-87.789097,SF,200.0,0.0,5.0,13302200000000,1.0,,1/1/2020,2019.0,71.0,,71200.0,88.0,,313000.0,1999-06-25 00:00:00,Single Family Residence
228,1.0,2.0,2.0,0.0,1.0,1,0.0,5.0,0.0,,2901 NORTH NEENAH AVENUE,0.0,1.0,3.0,1.0,3.0,,,"124,920",1,202,SMALL 1 STORY,1.0,2.0,,0.0,2.0,,2.0,,0.0,1.0,0.0,1.5,nan,1.0,0.0,0,,2.0,,"46,600",3728,41.93291916,-87.7890672,SF,200.0,0.0,5.0,13302200000000,1.0,,1/1/2020,2019.0,71.0,,71200.0,96.0,,440000.0,2020-02-14 00:00:00,Single Family Residence
229,2.0,4.0,2.0,0.0,1.0,1.5,0.0,8.0,0.0,,2840 NORTH NARRAGANSETT AVENUE,0.0,2.0,1.0,1.0,1.0,,,"257,040",5,203,MEDIUM 1 STORY,1.0,2.0,,0.0,2.0,,2.0,,0.0,2.0,0.0,1.5,nan,1.0,0.0,0,,2.0,,"55,210",4417,41.93220241,-87.78607908,SF,200.0,1.0,5.0,13302300000000,1.0,,1/1/2020,2019.0,71.0,,71200.0,97.0,,320000.0,2020-02-18 00:00:00,Single Family Residence
230,2.0,3.0,2.0,0.0,1.0,2,0.0,6.0,0.0,,2707 NORTH NEWLAND AVENUE,0.0,2.0,3.0,3.0,1.0,,,"211,730",2,205,2 OR MORE STORIES,1.0,2.0,,1.0,1.0,,2.0,,0.0,3.0,0.0,1.5,nan,1.0,0.0,0,,2.0,,"49,200",3936,41.92933723,-87.79872320000001,SF,200.0,0.0,5.0,13303100000000,1.0,,1/1/2020,2019.0,71.0,,71200.0,94.0,,273000.0,2020-02-06 00:00:00,Single Family Residence
231,2.0,4.0,2.0,0.0,1.0,1,0.0,5.0,0.0,,7030 WEST WRIGHTWOOD AVENUE,0.0,2.0,3.0,1.0,3.0,,,"133,450",1,202,SMALL 1 STORY,1.0,0.0,,0.0,2.0,,2.0,,0.0,1.0,0.0,1,nan,1.0,0.0,0,,2.0,,"68,250",5460,41.92743953,-87.80213848,SF,200.0,0.0,5.0,13303100000000,1.0,,1/1/2020,2019.0,71.0,,71200.0,94.0,,1020000.0,2020-01-30 00:00:00,Single Family Residence
232,1.0,1.0,2.0,0.0,1.0,1,0.0,4.0,0.0,,2446 NORTH NEW ENGLAND AVENUE,0.0,2.0,3.0,1.0,3.0,,,"127,560",1,202,SMALL 1 STORY,1.0,2.0,,0.0,1.0,,2.0,,0.0,1.0,0.0,1.5,nan,1.0,0.0,0,,2.0,,"50,730",4059,41.92498885,-87.7980681,SF,200.0,0.0,5.0,13303300000000,1.0,,1/1/2020,2019.0,71.0,,71200.0,94.0,,200000.0,2020-02-11 00:00:00,Single Family Residence
233,4.0,5.0,2.0,0.0,1.0,2,0.0,13.0,4.0,,2235 NORTH HARLEM AVENUE,0.0,1.0,3.0,3.0,1.0,,,"308,620",2,211,MULTI: 2 TO 6 UNITS,2.0,2.0,,0.0,2.0,,2.0,,0.0,2.0,0.0,1.5,nan,2.0,0.0,0,,2.0,,"58,430",4675,41.92093252,-87.80577928,MF,200.0,1.0,5.0,13311100000000,1.0,,1/1/2020,2019.0,71.0,,71200.0,71.0,,390000.0,2020-02-05 00:00:00,Apartment house (5+ units)
234,2.0,3.0,2.0,0.0,1.0,2,0.0,5.0,0.0,,2227 NORTH NORDICA AVENUE,0.0,3.0,0.0,1.0,3.0,,,"311,040",2,206,2 OR MORE STORIES,1.0,2.0,,0.0,1.0,,2.0,,0.0,1.0,0.0,1.5,nan,2.0,0.0,0,,2.0,,"124,370",9950,41.92073597,-87.80197184,SF,200.0,0.0,5.0,13311100000000,1.0,,1/1/2020,2019.0,71.0,,71200.0,104.0,,300000.0,2020-02-21 00:00:00,Single Family Residence
235,3.0,4.0,2.0,0.0,1.0,2,0.0,7.0,0.0,,2138 NORTH SAYRE AVENUE,0.0,3.0,0.0,2.0,3.0,,,"232,220",2,206,2 OR MORE STORIES,1.0,2.0,,0.0,1.0,,2.0,,0.0,1.0,0.0,0,nan,0.0,0.0,0,,2.0,,"125,000",10000,41.91919049,-87.80111628,SF,200.0,0.0,5.0,13311200000000,1.0,,1/1/2020,2019.0,71.0,,71200.0,104.0,,460000.0,2020-01-28 00:00:00,Single Family Residence
236,1.0,3.0,2.0,0.0,1.0,1.5,0.0,7.0,0.0,,1729 NORTH NORDICA AVENUE,0.0,1.0,1.0,2.0,3.0,,,"214,760",5,204,LARGE 1 STORY,1.0,0.0,,0.0,1.0,,2.0,,0.0,1.0,0.0,1,nan,1.0,0.0,0,,2.0,,"100,500",8040,41.91166734,-87.80168125,SF,200.0,0.0,5.0,13313200000000,1.0,,1/1/2020,2019.0,71.0,,71200.0,77.0,,405000.0,2020-01-28 00:00:00,Single Family Residence
237,1.0,3.0,2.0,0.0,1.0,2,0.0,5.0,0.0,,1836 NORTH NASHVILLE AVENUE,0.0,3.0,0.0,2.0,3.0,,,"188,050",2,205,2 OR MORE STORIES,1.0,0.0,,0.0,1.0,,2.0,,0.0,1.0,0.0,0,nan,0.0,0.0,0,,2.0,,"45,750",3660,41.91383074,-87.7904136,SF,200.0,0.0,5.0,13314100000000,1.0,,1/1/2020,2019.0,71.0,,71200.0,70.0,,250000.0,2020-02-07 00:00:00,Single Family Residence
238,1.0,3.0,2.0,0.0,2.0,2,0.0,6.0,0.0,,1803 NORTH NATCHEZ AVENUE,0.0,3.0,0.0,1.0,3.0,,,"208,630",2,205,2 OR MORE STORIES,1.0,2.0,,1.0,1.0,,2.0,,0.0,2.0,0.0,0,nan,0.0,0.0,0,,2.0,,"43,870",3510,41.91294423,-87.78802172,SF,200.0,0.0,5.0,13314100000000,1.0,,1/1/2020,2019.0,71.0,,71200.0,77.0,,203000.0,2020-02-07 00:00:00,Single Family Residence
239,3.0,7.0,2.0,0.0,1.0,1.5,0.0,14.0,3.0,,2341 NORTH MERRIMAC AVENUE,0.0,1.0,2.0,1.0,2.0,,,"259,210",5,211,MULTI: 2 TO 6 UNITS,2.0,2.0,,0.0,1.0,,2.0,,1.0,2.0,0.0,0,nan,0.0,0.0,0,,2.0,,"46,870",3750,41.92289195,-87.78141892,MF,270.0,0.0,5.0,13321000000000,1.0,,1/1/2020,2019.0,71.0,,71270.0,96.0,,290000.0,2020-02-13 00:00:00,Apartment house (5+ units)
240,2.0,4.0,2.0,0.0,1.0,1,1.0,9.0,2.0,,5846 WEST GRAND AVENUE,0.0,3.0,0.0,1.0,2.0,,,"181,930",1,211,MULTI: 2 TO 6 UNITS,2.0,0.0,,0.0,1.0,,2.0,,0.0,2.0,0.0,0,nan,0.0,0.0,0,,2.0,,"39,780",3183,41.92026993,-87.77250511,MF,270.0,0.0,5.0,13322100000000,1.0,,1/1/2020,2019.0,71.0,,71270.0,52.0,,265000.0,2020-02-03 00:00:00,Apartment house (5+ units)
241,2.0,4.0,2.0,0.0,1.0,2,0.0,8.0,2.0,,1749 NORTH MEADE AVENUE,0.0,3.0,0.0,1.0,3.0,,,"182,700",2,211,MULTI: 2 TO 6 UNITS,2.0,2.0,,0.0,1.0,,2.0,,1.0,2.0,0.0,1.5,nan,2.0,0.0,0,,2.0,,"43,090",3918,41.912486,-87.77741083,MF,210.0,0.0,5.0,13323100000000,1.0,,1/1/2020,2019.0,71.0,,71210.0,97.0,,152000.0,2020-02-06 00:00:00,Apartment house (5+ units)
242,3.0,4.0,2.0,1.0,2.0,2,0.0,7.0,3.0,,2259 NORTH LOREL AVENUE,0.0,1.0,1.0,2.0,3.0,,,"316,230",2,212,MIXED USE,2.0,2.0,,1.0,2.0,,2.0,,0.0,2.0,0.0,2,nan,1.0,0.0,0,,2.0,,"39,370",3150,41.92211132,-87.75942389,MF,280.0,0.0,5.0,13331100000000,2.0,,1/1/2020,2019.0,71.0,,71280.0,122.0,,96000.0,2020-02-11 00:00:00,Apartment house (5+ units)
243,3.0,5.0,2.0,0.0,1.0,2,0.0,10.0,3.0,,2255 NORTH LOREL AVENUE,0.0,1.0,2.0,4.0,3.0,,,"184,650",2,211,MULTI: 2 TO 6 UNITS,2.0,2.0,,0.0,1.0,,2.0,,1.0,1.0,0.0,0,nan,0.0,0.0,0,,2.0,,"39,370",3150,41.92197423,-87.75941952,MF,280.0,0.0,2.0,13331100000000,1.0,,1/1/2020,2019.0,71.0,,71280.0,125.0,,260000.0,2020-02-14 00:00:00,Apartment house (5+ units)
244,2.0,4.0,2.0,0.0,1.0,2,0.0,8.0,0.0,,2056 NORTH LAVERGNE AVENUE,0.0,2.0,3.0,1.0,3.0,,,"212,520",2,211,MULTI: 2 TO 6 UNITS,2.0,0.0,,0.0,2.0,,2.0,,0.0,1.0,0.0,1.5,nan,1.0,0.0,0,,2.0,,"58,900",4712,41.91854602,-87.75142766,MF,280.0,0.0,5.0,13332300000000,1.0,,1/1/2020,2019.0,71.0,,71280.0,125.0,,350000.0,2020-02-05 00:00:00,Apartment house (5+ units)
245,2.0,4.0,2.0,0.0,1.0,2,0.0,6.0,2.0,,1755 NORTH LINDER AVENUE,0.0,3.0,0.0,1.0,3.0,,,"147,220",2,211,MULTI: 2 TO 6 UNITS,2.0,2.0,,0.0,1.0,,2.0,,0.0,2.0,0.0,1,nan,1.0,0.0,0,,2.0,,"41,250",3750,41.91285124,-87.76277278,MF,210.0,0.0,5.0,13333100000000,1.0,,1/1/2020,2019.0,71.0,,71210.0,93.0,,330000.0,2020-02-05 00:00:00,Apartment house (5+ units)
246,1.0,4.0,2.0,0.0,1.0,1.5,0.0,7.0,0.0,,1707 NORTH LOCKWOOD AVENUE,0.0,1.0,1.0,1.0,3.0,,,"124,810",5,203,MEDIUM 1 STORY,1.0,0.0,,0.0,1.0,,2.0,,1.0,2.0,0.0,1.5,nan,1.0,0.0,0,,2.0,,"41,250",3750,41.91160056,-87.75783163,SF,210.0,0.0,5.0,13333200000000,1.0,,1/1/2020,2019.0,71.0,,71210.0,95.0,,206000.0,2020-02-24 00:00:00,Single Family Residence
247,1.0,2.0,2.0,0.0,1.0,1.5,1.0,5.0,0.0,,4740 WEST MCLEAN AVENUE,0.0,2.0,1.0,1.0,1.0,,,"191,770",5,203,MEDIUM 1 STORY,1.0,2.0,,1.0,1.0,,2.0,,1.0,2.0,0.0,0,nan,0.0,0.0,0,,2.0,,"45,670",3150,41.91811495,-87.7453218,SF,180.0,0.0,5.0,13341200000000,1.0,,1/1/2020,2019.0,71.0,,71180.0,93.0,,250000.0,2020-02-05 00:00:00,Single Family Residence
248,1.0,3.0,2.0,0.0,1.0,1,0.0,6.0,0.0,,2228 NORTH KEELER AVENUE,0.0,1.0,1.0,1.0,3.0,,,"148,390",1,203,MEDIUM 1 STORY,1.0,0.0,,0.0,2.0,,2.0,,0.0,1.0,0.0,1.5,nan,1.0,0.0,0,,2.0,,"68,510",4725,41.92166102,-87.73193603,SF,180.0,0.0,5.0,13342100000000,2.0,,1/1/2020,2019.0,71.0,,71180.0,110.0,,327000.0,2020-02-06 00:00:00,Single Family Residence
249,2.0,4.0,2.0,0.0,1.0,1.5,0.0,7.0,0.0,,2208 NORTH KEDVALE AVENUE,0.0,1.0,1.0,1.0,3.0,,,"188,650",5,203,MEDIUM 1 STORY,1.0,2.0,,0.0,2.0,,2.0,,1.0,2.0,0.0,1.5,nan,2.0,0.0,0,,2.0,,"54,810",3780,41.92115803,-87.73069747,SF,180.0,0.0,5.0,13342100000000,1.0,,1/1/2020,2019.0,71.0,,71180.0,105.0,,279000.0,2020-02-24 00:00:00,Single Family Residence
250,2.0,4.0,2.0,0.0,1.0,2,0.0,8.0,2.0,,1644 NORTH TRIPP AVENUE,0.0,3.0,0.0,1.0,3.0,,,"201,370",2,211,MULTI: 2 TO 6 UNITS,2.0,2.0,,0.0,2.0,,2.0,,1.0,2.0,0.0,1.5,nan,1.0,0.0,0,,2.0,,"46,870",3750,41.91119256,-87.73283033,MF,520.0,0.0,5.0,13344300000000,1.0,,1/1/2020,2019.0,71.0,,71520.0,95.0,,240000.0,2020-02-24 00:00:00,Apartment house (5+ units)
251,2.0,3.0,2.0,0.0,1.0,1,0.0,7.0,2.0,,3570 WEST SHAKESPEARE AVENUE,0.0,1.0,1.0,1.0,3.0,,,"225,810",1,211,MULTI: 2 TO 6 UNITS,2.0,0.0,,0.0,1.0,,2.0,,0.0,1.0,0.0,1.5,nan,1.0,0.0,0,,2.0,,"45,670",3150,41.92030059,-87.71633268,MF,180.0,0.0,2.0,13352200000000,1.0,,1/1/2020,2019.0,71.0,,71180.0,115.0,,413500.0,2020-02-06 00:00:00,Apartment house (5+ units)
252,2.0,4.0,2.0,0.0,1.0,2,0.0,6.0,2.0,,1918 NORTH RIDGEWAY AVENUE,0.0,3.0,0.0,1.0,3.0,,,"26,790",2,211,MULTI: 2 TO 6 UNITS,2.0,0.0,,0.0,1.0,,2.0,,0.0,1.0,0.0,1.5,nan,1.0,0.0,0,,2.0,,"45,670",3150,41.91601404,-87.72075645,MF,180.0,0.0,5.0,13353000000000,1.0,,1/1/2020,2019.0,71.0,,71180.0,130.0,,760000.0,2020-02-21 00:00:00,Apartment house (5+ units)
253,2.0,4.0,2.0,0.0,1.0,2,0.0,8.0,2.0,,1923 NORTH LAWNDALE AVENUE,0.0,1.0,1.0,1.0,1.0,,,"250,440",2,211,MULTI: 2 TO 6 UNITS,2.0,2.0,,0.0,2.0,,2.0,,0.0,1.0,0.0,1.5,nan,1.0,0.0,0,,2.0,,"45,670",3150,41.91617959,-87.71883351,MF,180.0,0.0,5.0,13353100000000,1.0,,1/1/2020,2019.0,71.0,,71180.0,110.0,,505000.0,2020-02-05 00:00:00,Apartment house (5+ units)
254,3.0,5.0,2.0,0.0,1.0,3,0.0,9.0,3.0,,3646 WEST WABANSIA AVENUE,0.0,1.0,3.0,4.0,3.0,,,"330,950",3,211,MULTI: 2 TO 6 UNITS,2.0,0.0,,0.0,1.0,,2.0,,0.0,3.0,0.0,1.5,nan,1.0,1.0,1,,2.0,,"45,310",3125,41.91205881,-87.71849237,MF,180.0,0.0,5.0,13353200000000,1.0,,1/1/2020,2019.0,71.0,,71180.0,125.0,,270000.0,2020-02-20 00:00:00,Apartment house (5+ units)
255,2.0,3.0,2.0,0.0,1.0,3,1.0,7.0,0.0,,1810 NORTH SPAULDING AVENUE,0.0,3.0,0.0,2.0,3.0,,,"318,730",3,295,TOWNHOUSE,1.0,2.0,,1.0,1.0,,2.0,,0.0,2.0,0.0,1,nan,2.0,1.0,1,,2.0,,"11,250",776,41.91412989,-87.71039879,SF,180.0,0.0,5.0,13354100000000,2.0,,1/1/2020,2019.0,71.0,,71180.0,12.0,,382500.0,2020-01-30 00:00:00,Townhouse
256,2.0,4.0,2.0,0.0,1.0,2,0.0,7.0,0.0,,1733 NORTH DRAKE AVENUE,0.0,3.0,0.0,4.0,3.0,,,"23,230",2,207,2 OR MORE STORIES,1.0,2.0,,1.0,1.0,,2.0,,0.0,1.0,0.0,1.5,nan,1.0,0.0,0,,2.0,,"64,160",4425,41.91284724,-87.71457106,SF,180.0,0.0,5.0,13354100000000,1.0,,1/1/2020,2019.0,71.0,,71180.0,1.0,,555000.0,2020-02-05 00:00:00,Single Family Residence
257,2.0,6.0,2.0,0.0,1.0,2,0.0,12.0,2.0,,2023 NORTH HUMBOLDT BOULEVARD,0.0,3.0,0.0,1.0,3.0,,,"409,900",2,211,MULTI: 2 TO 6 UNITS,2.0,0.0,,0.0,1.0,,2.0,,0.0,2.0,0.0,0,nan,0.0,0.0,0,,2.0,,"148,200",5812,41.91816704,-87.70112734,MF,30.0,0.0,5.0,13361200000000,1.0,,1/1/2020,2019.0,77.0,,7730.0,63.0,,547000.0,2020-01-30 00:00:00,Apartment house (5+ units)
258,1.0,3.0,2.0,0.0,1.0,1,0.0,6.0,0.0,,2657 WEST BELDEN AVENUE,0.0,3.0,0.0,2.0,3.0,,,"375,660",1,203,MEDIUM 1 STORY,1.0,0.0,,0.0,1.0,,2.0,,0.0,2.0,0.0,1.5,nan,1.0,0.0,0,,2.0,,"79,680",3125,41.92270973,-87.69506718,SF,30.0,0.0,5.0,13362100000000,1.0,,1/1/2020,2019.0,77.0,,7730.0,45.0,,380000.0,2020-02-11 00:00:00,Single Family Residence
259,4.0,5.0,2.0,0.0,1.0,3,1.0,12.0,2.0,,2160 NORTH MAPLEWOOD AVENUE,0.0,1.0,3.0,1.0,3.0,,,"643,660",3,211,MULTI: 2 TO 6 UNITS,2.0,2.0,,0.0,1.0,,2.0,,0.0,1.0,0.0,0,nan,0.0,0.0,0,,2.0,,"70,120",2750,41.92102907,-87.69170431,MF,30.0,0.0,2.0,13362200000000,1.0,,1/1/2020,2019.0,77.0,,7730.0,128.0,,1010000.0,2020-02-18 00:00:00,Apartment house (5+ units)
260,3.0,4.0,2.0,0.0,2.0,2,0.0,7.0,0.0,,3114 WEST HOMER STREET,0.0,3.0,0.0,1.0,1.0,,,0,2,278,2 OR MORE STORIES,1.0,2.0,,1.0,1.0,,2.0,,0.0,1.0,0.0,1.5,nan,1.0,0.0,0,,2.0,,"79,680",3125,41.91676731,-87.70594183,SF,30.0,0.0,5.0,13363000000000,1.0,,1/1/2020,2019.0,77.0,,7730.0,1.0,,995000.0,2020-02-11 00:00:00,Apartment house (5+ units)
261,2.0,6.0,2.0,0.0,1.0,2,0.0,12.0,2.0,,1732 NORTH WHIPPLE STREET,0.0,2.0,3.0,3.0,1.0,,,"363,980",2,211,MULTI: 2 TO 6 UNITS,2.0,2.0,,0.0,2.0,,2.0,,0.0,3.0,0.0,0,nan,0.0,0.0,0,,2.0,,"75,220",2950,41.91297538,-87.70379227,MF,30.0,0.0,5.0,13363200000000,1.0,,1/1/2020,2019.0,77.0,,7730.0,130.0,,310000.0,2020-02-10 00:00:00,Apartment house (5+ units)
262,1.0,3.0,2.0,0.0,1.0,2,1.0,6.0,0.0,,1632 NORTH TROY STREET,0.0,3.0,0.0,1.0,3.0,,,"381,560",2,207,2 OR MORE STORIES,1.0,2.0,,1.0,1.0,,2.0,,0.0,2.0,0.0,1.5,nan,1.0,0.0,0,,2.0,,"63,750",2500,41.91117062,-87.70597943,SF,30.0,0.0,5.0,13363200000000,1.0,,1/1/2020,2019.0,77.0,,7730.0,19.0,,455000.0,2020-01-28 00:00:00,Single Family Residence
263,2.0,4.0,2.0,0.0,2.0,2,1.0,7.0,0.0,,2624 WEST HOMER STREET,0.0,3.0,0.0,1.0,3.0,,,"703,270",2,278,2 OR MORE STORIES,1.0,2.0,,1.0,1.0,,2.0,,0.0,1.0,0.0,1.5,nan,1.0,0.0,0,,2.0,,"79,680",3125,41.91687559,-87.69337709999999,SF,30.0,0.0,5.0,13364000000000,1.0,,1/1/2020,2019.0,77.0,,7730.0,13.0,,942500.0,2020-02-18 00:00:00,Single Family Residence
264,1.0,3.0,2.0,0.0,1.0,2,0.0,6.0,0.0,,1515 WEST HIGHLAND AVENUE,0.0,1.0,3.0,1.0,3.0,,,"296,560",2,205,2 OR MORE STORIES,1.0,0.0,,0.0,1.0,,2.0,,0.0,1.0,0.0,0,nan,0.0,0.0,0,,2.0,,"126,500",2750,41.99706467,-87.6684975,SF,31.0,0.0,5.0,14051000000000,6.0,,1/1/2020,2019.0,73.0,,7331.0,110.0,,525000.0,2020-01-29 00:00:00,Single Family Residence
265,1.0,3.0,2.0,0.0,1.0,2,0.0,6.0,0.0,,1765 WEST DEVON AVENUE,0.0,2.0,3.0,1.0,3.0,,,"181,600",2,205,2 OR MORE STORIES,1.0,0.0,,0.0,2.0,,2.0,,0.0,1.0,0.0,1.5,nan,1.0,0.0,0,,2.0,,"229,400",5735,41.9976977,-87.67448043,SF,11.0,1.0,5.0,14062000000000,1.0,,1/1/2020,2019.0,73.0,,7311.0,110.0,,455000.0,2020-02-24 00:00:00,Single Family Residence
266,1.0,3.0,2.0,0.0,1.0,2,0.0,5.0,0.0,,6218 NORTH HERMITAGE AVENUE,0.0,2.0,3.0,3.0,3.0,,,"148,440",2,210,TOWNHOUSE,1.0,0.0,,1.0,1.0,,2.0,,0.0,2.0,0.0,0,nan,0.0,0.0,0,,2.0,,"83,400",1390,41.99504323,-87.67371145,SF,11.0,0.0,5.0,14062100000000,1.0,,1/1/2020,2019.0,73.0,,7311.0,63.0,,248000.0,2020-02-10 00:00:00,Miscellaneous (Residential)
267,1.0,4.0,2.0,0.0,1.0,2,0.0,5.0,0.0,,6216 NORTH HERMITAGE AVENUE,0.0,3.0,0.0,3.0,3.0,,,"69,500",2,210,TOWNHOUSE,1.0,0.0,,1.0,1.0,,2.0,,0.0,2.0,0.0,0,nan,0.0,0.0,0,,2.0,,"143,160",2386,41.99504497,-87.67360933,SF,11.0,0.0,5.0,14062100000000,1.0,,1/1/2020,2019.0,73.0,,7311.0,63.0,,248000.0,2020-02-10 00:00:00,Townhouse
268,2.0,3.0,2.0,0.0,1.0,3,0.0,6.0,0.0,,6168 NORTH RAVENSWOOD AVENUE,0.0,3.0,0.0,2.0,3.0,,,"274,530",3,295,TOWNHOUSE,1.0,2.0,,1.0,1.0,,2.0,,0.0,2.0,0.0,1.5,nan,2.0,1.0,1,,2.0,,"74,520",1242,41.99400648,-87.67551326,SF,11.0,1.0,5.0,14062100000000,2.0,,1/1/2020,2019.0,73.0,,7311.0,11.0,,305000.0,2020-02-04 00:00:00,Townhouse
269,1.0,3.0,2.0,0.0,1.0,1,1.0,7.0,0.0,,1734 WEST THORNDALE AVENUE,0.0,3.0,0.0,1.0,3.0,,,"302,930",1,203,MEDIUM 1 STORY,1.0,2.0,,0.0,2.0,,2.0,,0.0,2.0,0.0,1.5,nan,2.0,0.0,0,,2.0,,"211,200",5280,41.98863599,-87.6729278,SF,11.0,0.0,5.0,14064000000000,1.0,,1/1/2020,2019.0,73.0,,7311.0,96.0,,275000.0,2020-01-30 00:00:00,Single Family Residence
270,2.0,5.0,2.0,0.0,1.0,2,0.0,11.0,2.0,,1654 WEST HOLLYWOOD AVENUE,0.0,1.0,3.0,3.0,1.0,,,"381,120",2,211,MULTI: 2 TO 6 UNITS,2.0,2.0,,0.0,2.0,,2.0,,1.0,1.0,0.0,0,nan,0.0,0.0,0,,2.0,,"125,350",2725,41.98532117,-87.67203705,MF,31.0,0.0,5.0,14064100000000,1.0,,1/1/2020,2019.0,73.0,,7331.0,120.0,,350000.0,2020-02-05 00:00:00,Apartment house (5+ units)
271,5.0,6.0,2.0,0.0,2.0,2,1.0,10.0,0.0,,2313 WEST FARRAGUT AVENUE,0.0,3.0,0.0,1.0,1.0,,,"459,650",2,278,2 OR MORE STORIES,1.0,2.0,,1.0,1.0,,2.0,,0.0,1.0,0.0,1.5,nan,1.0,0.0,0,,2.0,,"157,500",3750,41.9765635,-87.68736014,SF,12.0,0.0,5.0,14071100000000,1.0,,1/1/2020,2019.0,73.0,,7312.0,1.0,,1200000.0,2020-01-31 00:00:00,Single Family Residence
272,2.0,4.0,2.0,0.0,1.0,2,0.0,10.0,2.0,,5448 NORTH PAULINA STREET,0.0,3.0,0.0,1.0,3.0,,,"347,480",2,211,MULTI: 2 TO 6 UNITS,2.0,0.0,,0.0,1.0,,2.0,,1.0,2.0,0.0,1,nan,1.0,0.0,0,,2.0,,"158,740",3451,41.98114345,-87.67254508,MF,31.0,0.0,5.0,14072100000000,2.0,,1/1/2020,2019.0,73.0,,7331.0,105.0,,1100000.0,2020-02-13 00:00:00,Apartment house (5+ units)
273,3.0,4.0,2.0,0.0,1.0,2,0.0,8.0,0.0,,4858 NORTH SEELEY AVENUE,0.0,3.0,0.0,1.0,3.0,,,"752,000",2,278,2 OR MORE STORIES,1.0,2.0,,1.0,1.0,,2.0,,0.0,1.0,0.0,1.5,nan,1.0,0.0,0,,2.0,,"128,100",3050,41.97042591,-87.68081406,SF,12.0,0.0,5.0,14073200000000,1.0,,1/1/2020,2019.0,73.0,,7312.0,19.0,,968500.0,2020-01-29 00:00:00,Single Family Residence
274,3.0,2.0,2.0,1.0,1.0,2,1.0,5.0,3.0,,5403 NORTH CLARK STREET,0.0,1.0,3.0,3.0,3.0,,,"601,210",2,212,MIXED USE,2.0,2.0,,0.0,2.0,,2.0,,0.0,2.0,0.0,0,nan,0.0,0.0,0,,2.0,,"404,060",8784,41.98003986,-87.66794652,MF,31.0,0.0,5.0,14081100000000,2.0,,1/1/2020,2019.0,73.0,,7331.0,107.0,,733000.0,1991-06-18 00:00:00,Apartment house (5+ units)
275,3.0,9.0,2.0,0.0,1.0,3,0.0,21.0,3.0,,1326 WEST WINNEMAC AVENUE,0.0,3.0,0.0,1.0,1.0,,,"761,640",3,211,MULTI: 2 TO 6 UNITS,2.0,2.0,,0.0,2.0,,2.0,,1.0,2.0,0.0,1.5,nan,2.0,0.0,0,,2.0,,"221,950",4624,41.97386791,-87.66332593,MF,32.0,0.0,5.0,14083100000000,2.0,,1/1/2020,2019.0,73.0,,7332.0,110.0,,729000.0,2020-02-14 00:00:00,Apartment house (5+ units)
276,1.0,3.0,2.0,0.0,1.0,2,1.0,5.0,0.0,,5041 NORTH KENMORE AVENUE,0.0,3.0,0.0,1.0,3.0,,,"115,880",2,295,TOWNHOUSE,1.0,0.0,,1.0,1.0,,2.0,,0.0,1.0,0.0,0,nan,0.0,0.0,0,,2.0,,"214,240",2678,41.97438225,-87.65573628,SF,50.0,0.0,5.0,14084100000000,1.0,,1/1/2020,2019.0,73.0,,7350.0,25.0,,240000.0,2020-02-14 00:00:00,Condominium
277,1.0,4.0,2.0,0.0,1.0,2,1.0,8.0,0.0,,4308 NORTH GREENVIEW AVENUE,0.0,2.0,3.0,1.0,3.0,,,"483,590",2,205,2 OR MORE STORIES,1.0,0.0,,0.0,2.0,,2.0,,0.0,1.0,0.0,0,nan,0.0,0.0,0,,2.0,,"192,000",4000,41.96014484,-87.66811695,SF,32.0,0.0,5.0,14173000000000,1.0,,1/1/2020,2019.0,73.0,,7332.0,115.0,,550000.0,2020-02-24 00:00:00,Single Family Residence
278,1.0,4.0,2.0,0.0,1.0,2,1.0,7.0,0.0,,4321 NORTH GREENVIEW AVENUE,0.0,2.0,1.0,1.0,3.0,,,"633,250",2,205,2 OR MORE STORIES,1.0,0.0,,0.0,1.0,,2.0,,1.0,1.0,0.0,1.5,nan,1.0,0.0,0,,2.0,,"231,940",3999,41.96047445,-87.66736493,SF,44.0,0.0,5.0,14173000000000,1.0,,1/1/2020,2019.0,73.0,,7344.0,114.0,,555000.0,2020-02-21 00:00:00,Single Family Residence
279,2.0,3.0,2.0,0.0,2.0,3,1.0,7.0,0.0,,4046 NORTH CLARK STREET,0.0,3.0,0.0,2.0,3.0,,,"433,940",3,295,TOWNHOUSE,1.0,1.0,,1.0,1.0,,2.0,,0.0,2.0,0.0,1.5,nan,2.0,1.0,1,,2.0,,"106,210",817,41.95540817,-87.66311294,SF,44.0,0.0,5.0,14173200000000,2.0,,1/1/2020,2019.0,73.0,,7344.0,22.0,,427500.0,2020-02-05 00:00:00,Townhouse
280,4.0,6.0,2.0,0.0,1.0,2,0.0,11.0,4.0,,4115 NORTH KENMORE AVENUE,0.0,3.0,0.0,1.0,2.0,,,"402,010",2,211,MULTI: 2 TO 6 UNITS,2.0,2.0,,0.0,2.0,,2.0,,0.0,2.0,0.0,1.5,nan,2.0,0.0,0,,3.0,,"172,500",3750,41.95702453,-87.65580697,MF,50.0,0.0,5.0,14174000000000,2.0,,1/1/2020,2019.0,73.0,,7350.0,120.0,,765000.0,2020-01-28 00:00:00,Apartment house (5+ units)
281,3.0,5.0,2.0,0.0,1.0,2,1.0,9.0,0.0,,2306 WEST GIDDINGS STREET,0.0,3.0,0.0,1.0,1.0,,,"864,730",2,206,2 OR MORE STORIES,1.0,2.0,,1.0,1.0,,2.0,,0.0,2.0,0.0,1.5,nan,1.0,0.0,0,,2.0,,"177,120",3690,41.96798254,-87.6868022,SF,41.0,0.0,5.0,14181000000000,2.0,,1/1/2020,2019.0,73.0,,7341.0,109.0,,1195000.0,2020-02-14 00:00:00,Single Family Residence
282,6.0,18.0,2.0,0.0,1.0,3,0.0,42.0,6.0,,1910 WEST SUNNYSIDE AVENUE,0.0,3.0,0.0,1.0,3.0,,,"1,097,330",3,211,MULTI: 2 TO 6 UNITS,2.0,0.0,,0.0,2.0,,2.0,,0.0,2.0,0.0,0,nan,0.0,0.0,0,,2.0,,"242,880",5060,41.96354174,-87.67666784,MF,42.0,0.0,5.0,14182100000000,2.0,,1/1/2020,2019.0,73.0,,7342.0,110.0,,2100000.0,2020-02-07 00:00:00,Apartment house (5+ units)
283,2.0,4.0,2.0,0.0,1.0,2,0.0,7.0,0.0,,4335 NORTH HERMITAGE AVENUE,0.0,1.0,3.0,1.0,3.0,,,"428,360",2,205,2 OR MORE STORIES,1.0,0.0,,0.0,2.0,,2.0,,0.0,1.0,0.0,0,nan,0.0,0.0,0,,2.0,,"261,360",5445,41.96082737,-87.67194395,SF,32.0,0.0,5.0,14184000000000,1.0,,1/1/2020,2019.0,73.0,,7332.0,120.0,,850000.0,2020-02-14 00:00:00,Single Family Residence
284,2.0,4.0,2.0,0.0,1.0,2,0.0,10.0,2.0,,4202 NORTH WINCHESTER AVENUE,0.0,3.0,0.0,1.0,3.0,,,"459,030",2,211,MULTI: 2 TO 6 UNITS,2.0,2.0,,0.0,2.0,,2.0,,1.0,2.0,0.0,1.5,nan,2.0,0.0,0,,2.0,,"220,320",4590,41.95803102,-87.6778089,MF,42.0,0.0,5.0,14184100000000,2.0,,1/1/2020,2019.0,73.0,,7342.0,110.0,,177500.0,1999-09-22 00:00:00,Apartment house (5+ units)
285,4.0,4.0,2.0,0.0,2.0,2,2.0,8.0,0.0,,2051 WEST GRACE STREET,0.0,3.0,0.0,1.0,1.0,,,"1,040,730",2,278,2 OR MORE STORIES,1.0,2.0,,1.0,1.0,,2.0,,0.0,1.0,0.0,1.5,nan,1.0,0.0,0,,2.0,,"162,500",3125,41.95022068,-87.68063186,SF,70.0,0.0,5.0,14191200000000,1.0,,1/1/2020,2019.0,73.0,,7370.0,4.0,,1350000.0,2020-02-10 00:00:00,Single Family Residence
286,6.0,12.0,2.0,0.0,1.0,3,0.0,30.0,6.0,,1842 WEST WAVELAND AVENUE,0.0,3.0,0.0,1.0,3.0,,,"702,870",3,211,MULTI: 2 TO 6 UNITS,2.0,2.0,,0.0,2.0,,2.0,,1.0,2.0,0.0,1.5,nan,1.0,0.0,0,,2.0,,"138,880",2480,41.94890241,-87.67571732,MF,81.0,0.0,5.0,14192200000000,2.0,,1/1/2020,2019.0,73.0,,7381.0,100.0,,1020000.0,2020-02-07 00:00:00,Apartment house (5+ units)
287,2.0,5.0,2.0,0.0,2.0,2,2.0,10.0,0.0,,3311 NORTH HAMILTON AVENUE,0.0,1.0,1.0,1.0,1.0,,,"803,140",2,206,2 OR MORE STORIES,1.0,2.0,,1.0,1.0,,2.0,,1.0,1.0,0.0,1.5,nan,1.0,0.0,0,,2.0,,"161,200",3100,41.94175173,-87.68170442,SF,70.0,0.0,5.0,14193200000000,6.0,,1/1/2020,2019.0,73.0,,7370.0,125.0,,815000.0,2020-02-25 00:00:00,Single Family Residence
